{"config": {"background": "white", "view": {"width": 400, "height": 300}, "mark": {"tooltip": null}}, "vconcat": [{"hconcat": [{"layer": [{"data": {"url": "https://data.oaklandnet.com/api/geospatial/9bhq-yt6w?method=export&format=GeoJSON", "format": {"feature": "Oakland", "type": "topojson"}}, "mark": {"type": "geoshape", "fill": "lightgray", "stroke": "darkgray"}, "projection": {"type": "albersUsa"}, "title": "Elementary Schools in Oakland"}, {"data": {"name": "data-1e1b89b367b8fe5f1071eee5d8c9cf40"}, "mark": "circle", "encoding": {"color": {"condition": {"value": "green", "test": "(datum.eq_demo_diff > 5)"}, "value": "yellow"}, "latitude": {"field": "lat", "type": "quantitative"}, "longitude": {"field": "lng", "type": "quantitative"}, "size": {"condition": {"type": "quantitative", "field": "eq_score", "legend": null, "selection": {"not": "selector032"}}, "value": 600}, "tooltip": [{"type": "nominal", "field": "school_name", "title": "School"}, {"type": "nominal", "field": "address", "title": "Address"}, {"type": "nominal", "field": "school_level", "title": "School Level"}, {"type": "quantitative", "field": "eq_score", "title": "Balanced Equity Score"}]}, "selection": {"selector031": {"type": "single", "empty": "all", "fields": ["school_name"]}, "selector032": {"type": "single", "on": "mouseover", "fields": ["school_name"]}}}], "resolve": {"axis": {}}}, {"vconcat": [{"vconcat": [{"hconcat": [{"mark": {"type": "text", "color": "black", "dx": -15, "dy": 3}, "encoding": {"text": {"type": "quantitative", "aggregate": "average", "field": "eq_score", "format": ".1f", "title": ""}, "y": {"type": "nominal", "aggregate": "sum", "axis": null, "field": "school_name", "title": ""}}}]}, {"hconcat": [{"mark": {"type": "text", "color": "black", "dx": -15, "dy": 3}, "encoding": {"text": {"type": "quantitative", "aggregate": "average", "field": "test_1_prof_above", "format": ".1f", "title": ""}, "y": {"type": "nominal", "aggregate": "sum", "axis": null, "field": "school_name", "title": ""}}}]}, {"hconcat": [{"mark": {"type": "text", "color": "black", "dx": -15, "dy": 3}, "encoding": {"text": {"type": "quantitative", "aggregate": "average", "field": "test_2_prof_above", "format": ".1f", "title": ""}, "y": {"type": "nominal", "aggregate": "sum", "axis": null, "field": "school_name", "title": ""}}}]}], "data": {"name": "data-1e1b89b367b8fe5f1071eee5d8c9cf40"}, "title": "Similar Students", "transform": [{"filter": {"selection": "selector031"}}]}, {"vconcat": [{"hconcat": [{"mark": {"type": "text", "color": "black", "dx": -15, "dy": 3}, "encoding": {"text": {"type": "quantitative", "aggregate": "average", "field": "eq_score", "format": ".1f", "title": ""}, "y": {"type": "nominal", "aggregate": "sum", "axis": null, "field": "school_name", "title": "EQ Score"}}}], "data": {"name": "data-1e1b89b367b8fe5f1071eee5d8c9cf40"}}, {"hconcat": [{"mark": {"type": "text", "color": "black", "dx": -15, "dy": 3}, "encoding": {"text": {"type": "quantitative", "aggregate": "average", "field": "test_1_prof_above", "format": ".1f", "title": ""}, "y": {"type": "nominal", "aggregate": "sum", "axis": null, "field": "school_name", "title": "EQ Score"}}}], "data": {"name": "data-1e1b89b367b8fe5f1071eee5d8c9cf40"}}, {"hconcat": [{"mark": {"type": "text", "color": "black", "dx": -15, "dy": 3}, "encoding": {"text": {"type": "quantitative", "aggregate": "average", "field": "test_2_prof_above", "format": ".1f", "title": ""}, "y": {"type": "nominal", "aggregate": "sum", "axis": null, "field": "school_name", "title": "EQ Score"}}}], "data": {"name": "data-1e1b89b367b8fe5f1071eee5d8c9cf40"}}], "data": {"name": "data-e581095f1a728f314ffeb57c561e6031"}, "title": "All Students", "transform": [{"filter": {"selection": "selector031"}}]}]}]}, {"data": {"name": "data-b0eb712ac1227ccb6b3f72ee740f30b6"}, "mark": "bar", "encoding": {"color": {"type": "quantitative", "field": "school_level"}, "tooltip": [{"type": "nominal", "field": "school_name", "title": "School"}, {"type": "quantitative", "field": "eq_score", "title": "Balanced Equity Score"}, {"type": "quantitative", "field": "test_1_prof_above", "title": "% Students Meeting or Exceeding Standard on SBAC Reading Test"}, {"type": "quantitative", "field": "test_2_prof_above", "title": "% Students Meeting or Exceeding Standard on SBAC Math Test"}], "x": {"type": "quantitative", "field": "eq_demo_diff", "title": ""}, "y": {"type": "nominal", "field": "school_name", "title": ""}}, "title": "Top 20 Elementary Schools' Performance Relative to \"All Students\" in Oakland"}], "$schema": "https://vega.github.io/schema/vega-lite/v3.4.0.json", "datasets": {"data-1e1b89b367b8fe5f1071eee5d8c9cf40": [{"school_name": "Hillcrest Elementary", "school_level": "elementary", "test_1_prof_above": 87.02178571428571, "test_2_prof_above": 83.23357142857144, "eq_score": 85.12767857142858, "address": "30 Marguerite Dr.", "zipcode": 94618, "lat": 37.8407556, "lng": -122.23246189999999, "test_1_demo_diff": 37.91831276058812, "test_2_demo_diff": 38.38691897081414, "eq_demo_diff": 38.15261586570114}, {"school_name": "Chabot Elementary", "school_level": "elementary", "test_1_prof_above": 81.30812499999999, "test_2_prof_above": 82.53625, "eq_score": 81.92218749999999, "address": "6686 Chabot Rd.", "zipcode": 94618, "lat": 37.8505437, "lng": -122.2409115, "test_1_demo_diff": 32.2046520463024, "test_2_demo_diff": 37.6895975422427, "eq_demo_diff": 34.947124794272554}, {"school_name": "Crocker Highlands Elementary", "school_level": "elementary", "test_1_prof_above": 83.18062499999999, "test_2_prof_above": 79.009375, "eq_score": 81.095, "address": "525 Midcrest Rd.", "zipcode": 94610, "lat": 37.8110651, "lng": -122.2272317, "test_1_demo_diff": 34.0771520463024, "test_2_demo_diff": 34.16272254224271, "eq_demo_diff": 34.11993729427256}, {"school_name": "Thornhill Elementary", "school_level": "elementary", "test_1_prof_above": 86.6109375, "test_2_prof_above": 74.94343750000002, "eq_score": 80.77718750000001, "address": "5880 Thornhill Dr.", "zipcode": 94611, "lat": 37.835910600000005, "lng": -122.21101440000001, "test_1_demo_diff": 37.507464546302415, "test_2_demo_diff": 30.096785042242722, "eq_demo_diff": 33.80212479427257}, {"school_name": "Peralta Elementary", "school_level": "elementary", "test_1_prof_above": 80.7184375, "test_2_prof_above": 79.195, "eq_score": 79.95671875, "address": "460 63rd St.", "zipcode": 94609, "lat": 37.849492, "lng": -122.2586978, "test_1_demo_diff": 31.614964546302403, "test_2_demo_diff": 34.3483475422427, "eq_demo_diff": 32.981656044272555}, {"school_name": "Montclair Elementary", "school_level": "elementary", "test_1_prof_above": 81.2715625, "test_2_prof_above": 70.1790625, "eq_score": 75.7253125, "address": "1757 Mountain Blvd.", "zipcode": 94611, "lat": 37.830872, "lng": -122.21286940000002, "test_1_demo_diff": 32.16808954630241, "test_2_demo_diff": 25.332410042242707, "eq_demo_diff": 28.750249794272563}, {"school_name": "Kaiser Elementary", "school_level": "elementary", "test_1_prof_above": 71.1565625, "test_2_prof_above": 71.7515625, "eq_score": 71.4540625, "address": "25 S. Hill Ct.", "zipcode": 94618, "lat": 37.8527693, "lng": -122.2315311, "test_1_demo_diff": 22.053089546302417, "test_2_demo_diff": 26.90491004224271, "eq_demo_diff": 24.478999794272568}, {"school_name": "Joaquin Miller Elementary", "school_level": "elementary", "test_1_prof_above": 70.195625, "test_2_prof_above": 64.82125, "eq_score": 67.50843750000001, "address": "5525 Ascot Dr.", "zipcode": 94611, "lat": 37.8188596, "lng": -122.20175659999998, "test_1_demo_diff": 21.092152046302417, "test_2_demo_diff": 19.974597542242712, "eq_demo_diff": 20.533374794272575}, {"school_name": "Cleveland Elementary", "school_level": "elementary", "test_1_prof_above": 64.49406250000001, "test_2_prof_above": 61.48406249999999, "eq_score": 62.9890625, "address": "745 Cleveland St.", "zipcode": 94606, "lat": 37.804029299999996, "lng": -122.2439861, "test_1_demo_diff": 15.390589546302422, "test_2_demo_diff": 16.6374100422427, "eq_demo_diff": 16.013999794272564}, {"school_name": "Glenview Elementary", "school_level": "elementary", "test_1_prof_above": 65.7934375, "test_2_prof_above": 55.281875, "eq_score": 60.53765625, "address": "4215 La Cresta Ave.", "zipcode": 94602, "lat": 37.8056021, "lng": -122.21925290000001, "test_1_demo_diff": 16.689964546302406, "test_2_demo_diff": 10.435222542242705, "eq_demo_diff": 13.56259354427256}, {"school_name": "Sequoia Elementary", "school_level": "elementary", "test_1_prof_above": 65.9825, "test_2_prof_above": 54.1921875, "eq_score": 60.08734375, "address": "3730 Lincoln Ave.", "zipcode": 94602, "lat": 37.8021834, "lng": -122.2109189, "test_1_demo_diff": 16.87902704630241, "test_2_demo_diff": 9.345535042242709, "eq_demo_diff": 13.112281044272564}, {"school_name": "Redwood Heights Elementary", "school_level": "elementary", "test_1_prof_above": 64.356875, "test_2_prof_above": 51.803749999999994, "eq_score": 58.0803125, "address": "4401 39th Ave.", "zipcode": 94619, "lat": 37.7973006, "lng": -122.18635619999999, "test_1_demo_diff": 15.253402046302412, "test_2_demo_diff": 6.9570975422427, "eq_demo_diff": 11.10524979427256}, {"school_name": "Lincoln Elementary", "school_level": "elementary", "test_1_prof_above": 53.386250000000004, "test_2_prof_above": 61.17656249999999, "eq_score": 57.281406249999996, "address": "225 11th St.", "zipcode": 94607, "lat": 37.799725099999996, "lng": -122.26702820000001, "test_1_demo_diff": 4.282777046302414, "test_2_demo_diff": 16.329910042242695, "eq_demo_diff": 10.306343544272558}, {"school_name": "Claremont Middle", "school_level": "middle", "test_1_prof_above": 58.9278125, "test_2_prof_above": 55.1815625, "eq_score": 57.0546875, "address": "5750 College Ave.", "zipcode": 94618, "lat": 37.8459164, "lng": -122.25103159999999, "test_1_demo_diff": 9.824339546302411, "test_2_demo_diff": 10.334910042242704, "eq_demo_diff": 10.079624794272561}, {"school_name": "Edna Brewer Middle", "school_level": "middle", "test_1_prof_above": 57.2009375, "test_2_prof_above": 50.24375, "eq_score": 53.72234375, "address": "3748 13th Ave.", "zipcode": 94610, "lat": 37.8037092, "lng": -122.22935929999998, "test_1_demo_diff": 8.097464546302412, "test_2_demo_diff": 5.3970975422427045, "eq_demo_diff": 6.747281044272562}, {"school_name": "Oakland Technical High", "school_level": "high", "test_1_prof_above": 55.800000000000004, "test_2_prof_above": 33.905, "eq_score": 44.852500000000006, "address": "4351 BRd.way", "zipcode": 94611, "lat": 37.832302399999996, "lng": -122.2553866, "test_1_demo_diff": 6.696527046302414, "test_2_demo_diff": -10.941652457757293, "eq_demo_diff": -2.1225627057274323}, {"school_name": "Manzanita SEED Elementary", "school_level": "elementary", "test_1_prof_above": 41.06375, "test_2_prof_above": 38.5815625, "eq_score": 39.822656249999994, "address": "2409 E. 27th St.", "zipcode": 94601, "lat": 37.7919493, "lng": -122.22479380000001, "test_1_demo_diff": -8.039722953697591, "test_2_demo_diff": -6.265089957757297, "eq_demo_diff": -7.152406455727444}, {"school_name": "Montera Middle", "school_level": "middle", "test_1_prof_above": 46.1525, "test_2_prof_above": 28.3846875, "eq_score": 37.26859375, "address": "5555 Ascot Dr.", "zipcode": 94611, "lat": 37.81965599999999, "lng": -122.2017352, "test_1_demo_diff": -2.950972953697587, "test_2_demo_diff": -16.461964957757296, "eq_demo_diff": -9.706468955727438}, {"school_name": "Melrose Leadership Academy", "school_level": "elementary", "test_1_prof_above": 38.915, "test_2_prof_above": 27.874999999999996, "eq_score": 33.394999999999996, "address": "4730 Fleming Ave.", "zipcode": 94619, "lat": 37.78044790000001, "lng": -122.1976185, "test_1_demo_diff": -10.188472953697591, "test_2_demo_diff": -16.971652457757298, "eq_demo_diff": -13.580062705727443}, {"school_name": "Skyline High", "school_level": "high", "test_1_prof_above": 35.931250000000006, "test_2_prof_above": 23.56125, "eq_score": 29.746250000000003, "address": "12250 Skyline Blvd.", "zipcode": 94619, "lat": 37.798392, "lng": -122.161464, "test_1_demo_diff": -13.172222953697585, "test_2_demo_diff": -21.285402457757293, "eq_demo_diff": -17.228812705727435}, {"school_name": "Bella Vista Elementary", "school_level": "elementary", "test_1_prof_above": 24.23451612903226, "test_2_prof_above": 29.619677419354836, "eq_score": 26.92709677419355, "address": "1025 E. 28th St.", "zipcode": 94610, "lat": 37.8002026, "lng": -122.237426, "test_1_demo_diff": -24.86895682466533, "test_2_demo_diff": -15.226975038402458, "eq_demo_diff": -20.047965931533888}, {"school_name": "ACORN Woodland Elementary", "school_level": "elementary", "test_1_prof_above": 25.690344827586205, "test_2_prof_above": 25.04586206896552, "eq_score": 25.36810344827586, "address": "1025 81st Ave.", "zipcode": 94621, "lat": 37.7529046, "lng": -122.1864449, "test_1_demo_diff": -23.413128126111385, "test_2_demo_diff": -19.800790388791775, "eq_demo_diff": -21.606959257451578}, {"school_name": "Laurel Elementary", "school_level": "elementary", "test_1_prof_above": 25.9153125, "test_2_prof_above": 23.298750000000002, "eq_score": 24.60703125, "address": "3750 Brown Ave.", "zipcode": 94619, "lat": 37.7927482, "lng": -122.19664309999999, "test_1_demo_diff": -23.18816045369759, "test_2_demo_diff": -21.547902457757292, "eq_demo_diff": -22.36803145572744}, {"school_name": "Think College Now", "school_level": "elementary", "test_1_prof_above": 25.862499999999997, "test_2_prof_above": 23.136875, "eq_score": 24.4996875, "address": "2825 International Blvd.", "zipcode": 94601, "lat": 37.7793766, "lng": -122.23061899999999, "test_1_demo_diff": -23.240972953697593, "test_2_demo_diff": -21.709777457757294, "eq_demo_diff": -22.47537520572744}, {"school_name": "Franklin Elementary", "school_level": "elementary", "test_1_prof_above": 26.835161290322578, "test_2_prof_above": 21.911290322580644, "eq_score": 24.37322580645161, "address": "915 Foothill Blvd.", "zipcode": 94606, "lat": 37.7935767, "lng": -122.24899309999999, "test_1_demo_diff": -22.268311663375012, "test_2_demo_diff": -22.93536213517665, "eq_demo_diff": -22.601836899275828}, {"school_name": "Bret Harte Middle", "school_level": "middle", "test_1_prof_above": 26.8909375, "test_2_prof_above": 18.4046875, "eq_score": 22.6478125, "address": "3700 Coolidge Ave.", "zipcode": 94602, "lat": 37.799337799999996, "lng": -122.2064993, "test_1_demo_diff": -22.21253545369759, "test_2_demo_diff": -26.441964957757293, "eq_demo_diff": -24.327250205727438}, {"school_name": "Roosevelt Middle", "school_level": "middle", "test_1_prof_above": 21.0740625, "test_2_prof_above": 19.509375000000002, "eq_score": 20.29171875, "address": "1926 19th Ave.", "zipcode": 94606, "lat": 37.7899489, "lng": -122.2372044, "test_1_demo_diff": -28.02941045369759, "test_2_demo_diff": -25.337277457757292, "eq_demo_diff": -26.683343955727437}, {"school_name": "Oakland High", "school_level": "high", "test_1_prof_above": 30.323750000000004, "test_2_prof_above": 9.71625, "eq_score": 20.020000000000003, "address": "1023 MacArthur Blvd.", "zipcode": 94610, "lat": 37.8044662, "lng": -122.2369001, "test_1_demo_diff": -18.779722953697586, "test_2_demo_diff": -35.13040245775729, "eq_demo_diff": -26.955062705727435}, {"school_name": "La Escuelita Elementary", "school_level": "elementary", "test_1_prof_above": 20.926851851851854, "test_2_prof_above": 17.90092592592593, "eq_score": 19.41388888888889, "address": "1100 Third Ave.", "zipcode": 94606, "lat": 37.795560200000004, "lng": -122.25702040000002, "test_1_demo_diff": -28.176621101845736, "test_2_demo_diff": -26.945726531831365, "eq_demo_diff": -27.561173816838547}, {"school_name": "Esperanza Elementary", "school_level": "elementary", "test_1_prof_above": 18.78, "test_2_prof_above": 18.703214285714285, "eq_score": 18.74160714285714, "address": "10315 E St.", "zipcode": 94603, "lat": 37.7372117, "lng": -122.1741615, "test_1_demo_diff": -30.32347295369759, "test_2_demo_diff": -26.14343817204301, "eq_demo_diff": -28.233455562870297}, {"school_name": "Piedmont Avenue Elementary", "school_level": "elementary", "test_1_prof_above": 19.964333333333336, "test_2_prof_above": 17.116999999999997, "eq_score": 18.540666666666667, "address": "4314 Piedmont Ave.", "zipcode": 94611, "lat": 37.8286763, "lng": -122.2485942, "test_1_demo_diff": -29.139139620364254, "test_2_demo_diff": -27.729652457757297, "eq_demo_diff": -28.434396039060772}, {"school_name": "Burckhalter Elementary", "school_level": "elementary", "test_1_prof_above": 18.06233333333333, "test_2_prof_above": 18.91, "eq_score": 18.486166666666666, "address": "3994 Burckhalter Ave.", "zipcode": 94605, "lat": 37.775290500000004, "lng": -122.16657790000001, "test_1_demo_diff": -31.04113962036426, "test_2_demo_diff": -25.936652457757294, "eq_demo_diff": -28.488896039060773}, {"school_name": "Garfield Elementary", "school_level": "elementary", "test_1_prof_above": 17.341874999999998, "test_2_prof_above": 17.195, "eq_score": 17.268437499999997, "address": "1640 22nd Ave.", "zipcode": 94606, "lat": 37.786459, "lng": -122.23569740000002, "test_1_demo_diff": -31.761597953697592, "test_2_demo_diff": -27.651652457757294, "eq_demo_diff": -29.70662520572744}, {"school_name": "MetWest High", "school_level": "high", "test_1_prof_above": 23.374285714285715, "test_2_prof_above": 10.961428571428574, "eq_score": 17.167857142857144, "address": "314 E. Tenth St.", "zipcode": 94606, "lat": 37.79533920000001, "lng": -122.25785590000001, "test_1_demo_diff": -25.729187239411875, "test_2_demo_diff": -33.88522388632872, "eq_demo_diff": -29.807205562870294}, {"school_name": "Coliseum College Prep Academy", "school_level": "elementary", "test_1_prof_above": 22.716052631578947, "test_2_prof_above": 11.336052631578948, "eq_score": 17.02605263157895, "address": "1390 66th Ave.", "zipcode": 94621, "lat": 37.7615544, "lng": -122.19367240000001, "test_1_demo_diff": -26.387420322118643, "test_2_demo_diff": -33.51059982617835, "eq_demo_diff": -29.94901007414849}, {"school_name": "Urban Promise Academy", "school_level": "middle", "test_1_prof_above": 20.536562500000002, "test_2_prof_above": 12.879375, "eq_score": 16.70796875, "address": "3031 E. 18th St.", "zipcode": 94601, "lat": 37.7819779, "lng": -122.22412890000001, "test_1_demo_diff": -28.566910453697588, "test_2_demo_diff": -31.967277457757294, "eq_demo_diff": -30.26709395572744}, {"school_name": "Martin Luther King Jr. Elementary", "school_level": "elementary", "test_1_prof_above": 12.839565217391307, "test_2_prof_above": 20.03304347826087, "eq_score": 16.436304347826088, "address": "960 Tenth St.", "zipcode": 94607, "lat": 37.806023100000004, "lng": -122.28338240000001, "test_1_demo_diff": -36.26390773630628, "test_2_demo_diff": -24.813608979496426, "eq_demo_diff": -30.53875835790135}, {"school_name": "Howard Elementary", "school_level": "elementary", "test_1_prof_above": 18.2441935483871, "test_2_prof_above": 14.598709677419356, "eq_score": 16.421451612903226, "address": "8755 Fontaine St.", "zipcode": 94605, "lat": 37.762239, "lng": -122.15223929999999, "test_1_demo_diff": -30.85927940531049, "test_2_demo_diff": -30.247942780337937, "eq_demo_diff": -30.553611092824212}, {"school_name": "Carl B. Munck Elementary", "school_level": "elementary", "test_1_prof_above": 15.133666666666667, "test_2_prof_above": 15.573666666666668, "eq_score": 15.353666666666667, "address": "11900 Campus Dr.", "zipcode": 94619, "lat": 37.7949441, "lng": -122.17402849999999, "test_1_demo_diff": -33.96980628703092, "test_2_demo_diff": -29.272985791090626, "eq_demo_diff": -31.62139603906077}, {"school_name": "LIFE Academy", "school_level": "elementary", "test_1_prof_above": 20.630555555555556, "test_2_prof_above": 8.940000000000001, "eq_score": 14.785277777777779, "address": "2101 35th Ave.", "zipcode": 94601, "lat": 37.7847011, "lng": -122.21654879999998, "test_1_demo_diff": -28.472917398142034, "test_2_demo_diff": -35.90665245775729, "eq_demo_diff": -32.18978492794966}, {"school_name": "Parker Elementary", "school_level": "elementary", "test_1_prof_above": 19.985000000000003, "test_2_prof_above": 9.027916666666668, "eq_score": 14.506458333333335, "address": "7929 Ney Ave.", "zipcode": 94605, "lat": 37.7652106, "lng": -122.1660014, "test_1_demo_diff": -29.118472953697587, "test_2_demo_diff": -35.818735791090624, "eq_demo_diff": -32.468604372394104}, {"school_name": "Greenleaf Elementary", "school_level": "elementary", "test_1_prof_above": 17.506, "test_2_prof_above": 11.086363636363636, "eq_score": 14.296181818181818, "address": "6328 E. 17th St.", "zipcode": 94621, "lat": 37.7646844, "lng": -122.19478090000001, "test_1_demo_diff": -31.59747295369759, "test_2_demo_diff": -33.76028882139366, "eq_demo_diff": -32.67888088754562}, {"school_name": "Fruitvale Elementary", "school_level": "elementary", "test_1_prof_above": 16.36741935483871, "test_2_prof_above": 12.204516129032259, "eq_score": 14.285967741935483, "address": "3200 Boston Ave.", "zipcode": 94602, "lat": 37.7962778, "lng": -122.21376629999999, "test_1_demo_diff": -32.73605359885888, "test_2_demo_diff": -32.64213632872504, "eq_demo_diff": -32.68909496379196}, {"school_name": "Fred T. Korematsu Discovery Academy", "school_level": "elementary", "test_1_prof_above": 13.522903225806452, "test_2_prof_above": 12.945806451612905, "eq_score": 13.234354838709677, "address": "10315 E St.", "zipcode": 94603, "lat": 37.7372117, "lng": -122.1741615, "test_1_demo_diff": -35.58056972789114, "test_2_demo_diff": -31.90084600614439, "eq_demo_diff": -33.74070786701776}, {"school_name": "International Community", "school_level": "elementary", "test_1_prof_above": 13.842692307692309, "test_2_prof_above": 11.708846153846151, "eq_score": 12.77576923076923, "address": "2825 International Blvd.", "zipcode": 94601, "lat": 37.7793766, "lng": -122.23061899999999, "test_1_demo_diff": -35.26078064600528, "test_2_demo_diff": -33.13780630391114, "eq_demo_diff": -34.19929347495821}, {"school_name": "Oakland SOL (School of Language) Dual Language Middle", "school_level": "middle", "test_1_prof_above": 15.761666666666665, "test_2_prof_above": 9.704583333333334, "eq_score": 12.733125, "address": "1180 70th Ave.", "zipcode": 94621, "lat": 37.7591225, "lng": -122.19094550000001, "test_1_demo_diff": -33.34180628703093, "test_2_demo_diff": -35.14206912442396, "eq_demo_diff": -34.24193770572744}, {"school_name": "Brookfield Elementary", "school_level": "elementary", "test_1_prof_above": 13.092500000000001, "test_2_prof_above": 11.126785714285713, "eq_score": 12.109642857142857, "address": "401 Jones Ave.", "zipcode": 94603, "lat": 37.734857899999994, "lng": -122.18923840000001, "test_1_demo_diff": -36.01097295369759, "test_2_demo_diff": -33.719866743471584, "eq_demo_diff": -34.86541984858458}, {"school_name": "McClymonds High", "school_level": "high", "test_1_prof_above": 21.75125, "test_2_prof_above": 2.01625, "eq_score": 11.88375, "address": "2607 Myrtle St.", "zipcode": 94607, "lat": 37.818646799999996, "lng": -122.27859199999999, "test_1_demo_diff": -27.35222295369759, "test_2_demo_diff": -42.830402457757295, "eq_demo_diff": -35.09131270572744}, {"school_name": "East Oakland Pride Elementary", "school_level": "elementary", "test_1_prof_above": 15.953000000000001, "test_2_prof_above": 7.665, "eq_score": 11.809000000000001, "address": "8000 Birch St.", "zipcode": 94621, "lat": 37.7592062, "lng": -122.176778, "test_1_demo_diff": -33.15047295369759, "test_2_demo_diff": -37.181652457757295, "eq_demo_diff": -35.16606270572744}, {"school_name": "Madison Park Academy 6-12", "school_level": "elementary", "test_1_prof_above": 17.718684210526316, "test_2_prof_above": 5.560263157894736, "eq_score": 11.639473684210525, "address": "400 Capistrano Dr.", "zipcode": 94603, "lat": 37.7266434, "lng": -122.179217, "test_1_demo_diff": -31.384788743171274, "test_2_demo_diff": -39.286389299862556, "eq_demo_diff": -35.33558902151691}, {"school_name": "Madison Park Academy TK-5", "school_level": "elementary", "test_1_prof_above": 14.275172413793104, "test_2_prof_above": 8.965172413793104, "eq_score": 11.620172413793103, "address": "470 El Paseo Dr.", "zipcode": 94603, "lat": 37.7280886, "lng": -122.177044, "test_1_demo_diff": -34.82830053990449, "test_2_demo_diff": -35.88148004396419, "eq_demo_diff": -35.35489029193434}, {"school_name": "Alliance Academy", "school_level": "middle", "test_1_prof_above": 16.032142857142855, "test_2_prof_above": 5.8549999999999995, "eq_score": 10.943571428571428, "address": "1800 98th Ave.", "zipcode": 94603, "lat": 37.7461669, "lng": -122.165824, "test_1_demo_diff": -33.07133009655473, "test_2_demo_diff": -38.9916524577573, "eq_demo_diff": -36.03149127715601}, {"school_name": "United for Success Academy", "school_level": "middle", "test_1_prof_above": 12.004838709677419, "test_2_prof_above": 9.676774193548386, "eq_score": 10.840806451612902, "address": "2101 35th Ave.", "zipcode": 94601, "lat": 37.7847011, "lng": -122.21654879999998, "test_1_demo_diff": -37.098634244020175, "test_2_demo_diff": -35.169878264208904, "eq_demo_diff": -36.13425625411453}, {"school_name": "Grass Valley Elementary", "school_level": "elementary", "test_1_prof_above": 11.099333333333334, "test_2_prof_above": 10.466, "eq_score": 10.782666666666668, "address": "4720 Dunkirk Ave.", "zipcode": 94605, "lat": 37.7528211, "lng": -122.12457020000001, "test_1_demo_diff": -38.004139620364256, "test_2_demo_diff": -34.38065245775729, "eq_demo_diff": -36.19239603906077}, {"school_name": "Emerson Elementary", "school_level": "elementary", "test_1_prof_above": 12.320967741935483, "test_2_prof_above": 8.773870967741935, "eq_score": 10.54741935483871, "address": "4803 Lawton Ave.", "zipcode": 94609, "lat": 37.8344201, "lng": -122.25794450000001, "test_1_demo_diff": -36.78250521176211, "test_2_demo_diff": -36.07278149001536, "eq_demo_diff": -36.42764335088873}, {"school_name": "Hoover Elementary", "school_level": "elementary", "test_1_prof_above": 11.843214285714286, "test_2_prof_above": 8.575357142857143, "eq_score": 10.209285714285715, "address": "890 Brockhurst St.", "zipcode": 94608, "lat": 37.823267, "lng": -122.27511409999998, "test_1_demo_diff": -37.26025866798331, "test_2_demo_diff": -36.27129531490015, "eq_demo_diff": -36.765776991441726}, {"school_name": "Fremont High", "school_level": "high", "test_1_prof_above": 16.549999999999997, "test_2_prof_above": 3.0287499999999996, "eq_score": 9.789374999999998, "address": "4610 Foothill Blvd.", "zipcode": 94601, "lat": 37.7741975, "lng": -122.209378, "test_1_demo_diff": -32.55347295369759, "test_2_demo_diff": -41.81790245775729, "eq_demo_diff": -37.18568770572744}, {"school_name": "EnCompass Academy Elementary", "school_level": "elementary", "test_1_prof_above": 10.992903225806451, "test_2_prof_above": 7.614193548387096, "eq_score": 9.303548387096773, "address": "1025 81st Ave.", "zipcode": 94621, "lat": 37.7529046, "lng": -122.1864449, "test_1_demo_diff": -38.11056972789114, "test_2_demo_diff": -37.232458909370195, "eq_demo_diff": -37.67151431863066}, {"school_name": "Prescott", "school_level": "elementary", "test_1_prof_above": 7.680714285714283, "test_2_prof_above": 9.759285714285715, "eq_score": 8.719999999999999, "address": "920 Campbell St.", "zipcode": 94607, "lat": 37.808724, "lng": -122.29750800000001, "test_1_demo_diff": -41.42275866798331, "test_2_demo_diff": -35.08736674347158, "eq_demo_diff": -38.25506270572744}, {"school_name": "Westlake Middle", "school_level": "middle", "test_1_prof_above": 10.614516129032257, "test_2_prof_above": 5.565483870967742, "eq_score": 8.09, "address": "2629 Harrison St.", "zipcode": 94612, "lat": 37.8145333, "lng": -122.2608691, "test_1_demo_diff": -38.48895682466534, "test_2_demo_diff": -39.281168586789555, "eq_demo_diff": -38.885062705727435}, {"school_name": "Elmhurst Community Prep", "school_level": "middle", "test_1_prof_above": 10.462666666666667, "test_2_prof_above": 5.709333333333334, "eq_score": 8.086, "address": "1800 98th Ave.", "zipcode": 94603, "lat": 37.7461669, "lng": -122.165824, "test_1_demo_diff": -38.64080628703093, "test_2_demo_diff": -39.13731912442396, "eq_demo_diff": -38.88906270572744}, {"school_name": "Bridges Academy", "school_level": "elementary", "test_1_prof_above": 8.2503125, "test_2_prof_above": 7.888125, "eq_score": 8.06921875, "address": "1325 53rd Ave.", "zipcode": 94601, "lat": 37.7674712, "lng": -122.2070645, "test_1_demo_diff": -40.85316045369759, "test_2_demo_diff": -36.95852745775729, "eq_demo_diff": -38.90584395572744}, {"school_name": "West Oakland Middle", "school_level": "middle", "test_1_prof_above": 9.9071875, "test_2_prof_above": 6.2, "eq_score": 8.05359375, "address": "991 14th St.", "zipcode": 94607, "lat": 37.8081631, "lng": -122.28221459999999, "test_1_demo_diff": -39.19628545369759, "test_2_demo_diff": -38.64665245775729, "eq_demo_diff": -38.92146895572744}, {"school_name": "Community United Elementary", "school_level": "elementary", "test_1_prof_above": 9.017037037037037, "test_2_prof_above": 6.984444444444444, "eq_score": 8.00074074074074, "address": "6701 International Blvd.", "zipcode": 94621, "lat": 37.76095249999999, "lng": -122.19185449999999, "test_1_demo_diff": -40.086435916660555, "test_2_demo_diff": -37.86220801331285, "eq_demo_diff": -38.9743219649867}, {"school_name": "New Highland Academy", "school_level": "elementary", "test_1_prof_above": 8.62, "test_2_prof_above": 7.305714285714285, "eq_score": 7.962857142857143, "address": "8521 A St.", "zipcode": 94621, "lat": 37.7517189, "lng": -122.1789509, "test_1_demo_diff": -40.48347295369759, "test_2_demo_diff": -37.540938172043006, "eq_demo_diff": -39.01220556287029}, {"school_name": "Global Family", "school_level": "elementary", "test_1_prof_above": 9.088965517241379, "test_2_prof_above": 6.2024137931034495, "eq_score": 7.645689655172414, "address": "2035 40th Ave.", "zipcode": 94601, "lat": 37.7794661, "lng": -122.21314840000002, "test_1_demo_diff": -40.01450743645621, "test_2_demo_diff": -38.64423866465384, "eq_demo_diff": -39.32937305055503}, {"school_name": "Manzanita Community", "school_level": "elementary", "test_1_prof_above": 9.4171875, "test_2_prof_above": 5.8115625, "eq_score": 7.614375000000001, "address": "2409 E. 27th St.", "zipcode": 94601, "lat": 37.7919493, "lng": -122.22479380000001, "test_1_demo_diff": -39.68628545369759, "test_2_demo_diff": -39.03508995775729, "eq_demo_diff": -39.360687705727436}, {"school_name": "Reach Academy", "school_level": "elementary", "test_1_prof_above": 9.0403125, "test_2_prof_above": 5.7015625, "eq_score": 7.3709375, "address": "9845 Bancroft Ave.", "zipcode": 94603, "lat": 37.74708770000001, "lng": -122.1613646, "test_1_demo_diff": -40.06316045369759, "test_2_demo_diff": -39.14508995775729, "eq_demo_diff": -39.60412520572744}, {"school_name": "Allendale Elementary", "school_level": "elementary", "test_1_prof_above": 7.457666666666666, "test_2_prof_above": 7.148666666666666, "eq_score": 7.303166666666666, "address": "3670 Penniman Ave.", "zipcode": 94619, "lat": 37.788718700000004, "lng": -122.20484520000001, "test_1_demo_diff": -41.64580628703092, "test_2_demo_diff": -37.69798579109063, "eq_demo_diff": -39.67189603906077}, {"school_name": "Rise Community", "school_level": "elementary", "test_1_prof_above": 9.405517241379311, "test_2_prof_above": 4.896896551724137, "eq_score": 7.151206896551724, "address": "8521 A St.", "zipcode": 94621, "lat": 37.7517189, "lng": -122.1789509, "test_1_demo_diff": -39.697955712318276, "test_2_demo_diff": -39.949755906033154, "eq_demo_diff": -39.82385580917571}, {"school_name": "MLK / Lafayette Elementary", "school_level": "elementary", "test_1_prof_above": 6.385454545454545, "test_2_prof_above": 7.815, "eq_score": 7.100227272727272, "address": "991 14th St.", "zipcode": 94607, "lat": 37.8081631, "lng": -122.28221459999999, "test_1_demo_diff": -42.71801840824305, "test_2_demo_diff": -37.031652457757296, "eq_demo_diff": -39.874835433000165}, {"school_name": "Sankofa Academy", "school_level": "elementary", "test_1_prof_above": 13.658846153846156, "test_2_prof_above": 0.0, "eq_score": 6.829423076923078, "address": "581 61st St.", "zipcode": 94609, "lat": 37.846884100000004, "lng": -122.2645469, "test_1_demo_diff": -35.444626799851434, "test_2_demo_diff": -44.846652457757294, "eq_demo_diff": -40.14563962880436}, {"school_name": "Frick Middle", "school_level": "middle", "test_1_prof_above": 8.282333333333334, "test_2_prof_above": 3.5460000000000003, "eq_score": 5.914166666666667, "address": "2845 64th Ave.", "zipcode": 94605, "lat": 37.771676899999996, "lng": -122.18431650000001, "test_1_demo_diff": -40.82113962036426, "test_2_demo_diff": -41.300652457757295, "eq_demo_diff": -41.06089603906077}, {"school_name": "Futures Elementary", "school_level": "elementary", "test_1_prof_above": 6.689666666666667, "test_2_prof_above": 3.9673333333333334, "eq_score": 5.3285, "address": "6701 International Blvd.", "zipcode": 94621, "lat": 37.76095249999999, "lng": -122.19185449999999, "test_1_demo_diff": -42.41380628703092, "test_2_demo_diff": -40.87931912442396, "eq_demo_diff": -41.64656270572744}, {"school_name": "Street Academy (Alternative)", "school_level": "high", "test_1_prof_above": 6.072857142857144, "test_2_prof_above": 2.7528571428571427, "eq_score": 4.412857142857144, "address": "417 29th St.", "zipcode": 94609, "lat": 37.817569799999994, "lng": -122.265433, "test_1_demo_diff": -43.030615810840445, "test_2_demo_diff": -42.09379531490015, "eq_demo_diff": -42.5622055628703}, {"school_name": "Castlemont High", "school_level": "high", "test_1_prof_above": 5.921250000000001, "test_2_prof_above": 0.0, "eq_score": 2.9606250000000003, "address": "8601 MacArthur Blvd.", "zipcode": 94605, "lat": 37.7591887, "lng": -122.1640862, "test_1_demo_diff": -43.18222295369759, "test_2_demo_diff": -44.846652457757294, "eq_demo_diff": -44.01443770572744}, {"school_name": "Ralph J. Bunche High", "school_level": "high", "test_1_prof_above": 5.557142857142857, "test_2_prof_above": 0.0, "eq_score": 2.7785714285714285, "address": "1240 18th St.", "zipcode": 94607, "lat": 37.8133544, "lng": -122.286943, "test_1_demo_diff": -43.54633009655473, "test_2_demo_diff": -44.846652457757294, "eq_demo_diff": -44.196491277156014}, {"school_name": "ROOTS International Academy", "school_level": "middle", "test_1_prof_above": 4.77, "test_2_prof_above": 0.7834375, "eq_score": 2.7767187499999997, "address": "1390 66th Ave.", "zipcode": 94621, "lat": 37.7615544, "lng": -122.19367240000001, "test_1_demo_diff": -44.333472953697594, "test_2_demo_diff": -44.063214957757296, "eq_demo_diff": -44.19834395572744}, {"school_name": "Horace Mann Elementary", "school_level": "elementary", "test_1_prof_above": 2.636774193548387, "test_2_prof_above": 2.16, "eq_score": 2.3983870967741936, "address": "5222 Ygnacio Ave.", "zipcode": 94601, "lat": 37.7738432, "lng": -122.20240679999999, "test_1_demo_diff": -46.4666987601492, "test_2_demo_diff": -42.68665245775729, "eq_demo_diff": -44.576675608953245}, {"school_name": "Independent Study Sojourner Truth", "school_level": "elementary", "test_1_prof_above": 4.5525, "test_2_prof_above": 0.0, "eq_score": 2.27625, "address": "8251 Fontaine St.", "zipcode": 94605, "lat": 37.7655596, "lng": -122.1535826, "test_1_demo_diff": -44.55097295369759, "test_2_demo_diff": -44.846652457757294, "eq_demo_diff": -44.69881270572744}, {"school_name": "Markham Elementary", "school_level": "elementary", "test_1_prof_above": 2.3774074074074076, "test_2_prof_above": 1.5285185185185184, "eq_score": 1.952962962962963, "address": "7220 Krause Ave.", "zipcode": 94605, "lat": 37.7654739, "lng": -122.1787292, "test_1_demo_diff": -46.72606554629018, "test_2_demo_diff": -43.31813393923878, "eq_demo_diff": -45.022099742764475}, {"school_name": "Oakland International High", "school_level": "high", "test_1_prof_above": 0.0, "test_2_prof_above": 3.617142857142857, "eq_score": 1.8085714285714285, "address": "4521 Webster St.", "zipcode": 94609, "lat": 37.83367140000001, "lng": -122.261002, "test_1_demo_diff": -49.10347295369759, "test_2_demo_diff": -41.229509600614435, "eq_demo_diff": -45.16649127715601}, {"school_name": "Community Day Middle", "school_level": "middle", "test_1_prof_above": 0.0, "test_2_prof_above": 0.0, "eq_score": 0.0, "address": "4917 Mountain Blvd.", "zipcode": 94619, "lat": 37.7870386, "lng": -122.177815, "test_1_demo_diff": -49.10347295369759, "test_2_demo_diff": -44.846652457757294, "eq_demo_diff": -46.97506270572744}, {"school_name": "Rudsdale Continuation", "school_level": "high", "test_1_prof_above": 0.0, "test_2_prof_above": 0.0, "eq_score": 0.0, "address": "8251 Fontaine St.", "zipcode": 94605, "lat": 37.7655596, "lng": -122.1535826, "test_1_demo_diff": -49.10347295369759, "test_2_demo_diff": -44.846652457757294, "eq_demo_diff": -46.97506270572744}, {"school_name": "Dewey Academy", "school_level": "high", "test_1_prof_above": 0.0, "test_2_prof_above": 0.0, "eq_score": 0.0, "address": "1111 2nd Ave.", "zipcode": 94606, "lat": 37.7968463, "lng": -122.25816609999998, "test_1_demo_diff": -49.10347295369759, "test_2_demo_diff": -44.846652457757294, "eq_demo_diff": -46.97506270572744}, {"school_name": "Community Day High", "school_level": "high", "test_1_prof_above": 0.0, "test_2_prof_above": 0.0, "eq_score": 0.0, "address": "4917 Mountain Blvd.", "zipcode": 94619, "lat": 37.7870386, "lng": -122.177815, "test_1_demo_diff": -49.10347295369759, "test_2_demo_diff": -44.846652457757294, "eq_demo_diff": -46.97506270572744}, {"school_name": "Gateway to College at Laney College", "school_level": "high", "test_1_prof_above": 0.0, "test_2_prof_above": 0.0, "eq_score": 0.0, "address": "900 Fallon St.", "zipcode": 94607, "lat": 37.79647690000001, "lng": -122.2628416, "test_1_demo_diff": -49.10347295369759, "test_2_demo_diff": -44.846652457757294, "eq_demo_diff": -46.97506270572744}, {"school_name": "Home and Hospital Program", "school_level": "elementary", "test_1_prof_above": 0.0, "test_2_prof_above": 0.0, "eq_score": 0.0, "address": "1011 Union St.", "zipcode": 94607, "lat": 37.8074136, "lng": -122.28962309999999, "test_1_demo_diff": -49.10347295369759, "test_2_demo_diff": -44.846652457757294, "eq_demo_diff": -46.97506270572744}], "data-e581095f1a728f314ffeb57c561e6031": [{"school_name": "Hillcrest Elementary", "school_level": "elementary", "test_1_prof_above": 88.03714285714285, "test_2_prof_above": 82.52714285714286, "eq_score": 85.28214285714286, "address": "30 Marguerite Dr.", "zipcode": 94618, "lat": 37.8407556, "lng": -122.23246189999999}, {"school_name": "Chabot Elementary", "school_level": "elementary", "test_1_prof_above": 78.535, "test_2_prof_above": 80.61749999999999, "eq_score": 79.57624999999999, "address": "6686 Chabot Rd.", "zipcode": 94618, "lat": 37.8505437, "lng": -122.2409115}, {"school_name": "Peralta Elementary", "school_level": "elementary", "test_1_prof_above": 79.3525, "test_2_prof_above": 78.3075, "eq_score": 78.83000000000001, "address": "460 63rd St.", "zipcode": 94609, "lat": 37.849492, "lng": -122.2586978}, {"school_name": "Crocker Highlands Elementary", "school_level": "elementary", "test_1_prof_above": 79.7525, "test_2_prof_above": 75.9525, "eq_score": 77.85249999999999, "address": "525 Midcrest Rd.", "zipcode": 94610, "lat": 37.8110651, "lng": -122.2272317}, {"school_name": "Thornhill Elementary", "school_level": "elementary", "test_1_prof_above": 82.6575, "test_2_prof_above": 71.93249999999999, "eq_score": 77.29499999999999, "address": "5880 Thornhill Dr.", "zipcode": 94611, "lat": 37.835910600000005, "lng": -122.21101440000001}, {"school_name": "Montclair Elementary", "school_level": "elementary", "test_1_prof_above": 77.9025, "test_2_prof_above": 67.6125, "eq_score": 72.7575, "address": "1757 Mountain Blvd.", "zipcode": 94611, "lat": 37.830872, "lng": -122.21286940000002}, {"school_name": "Kaiser Elementary", "school_level": "elementary", "test_1_prof_above": 67.39, "test_2_prof_above": 70.21000000000001, "eq_score": 68.80000000000001, "address": "25 S. Hill Ct.", "zipcode": 94618, "lat": 37.8527693, "lng": -122.2315311}, {"school_name": "Lincoln Elementary", "school_level": "elementary", "test_1_prof_above": 59.042500000000004, "test_2_prof_above": 69.7025, "eq_score": 64.3725, "address": "225 11th St.", "zipcode": 94607, "lat": 37.799725099999996, "lng": -122.26702820000001}, {"school_name": "Cleveland Elementary", "school_level": "elementary", "test_1_prof_above": 61.65500000000001, "test_2_prof_above": 61.269999999999996, "eq_score": 61.462500000000006, "address": "745 Cleveland St.", "zipcode": 94606, "lat": 37.804029299999996, "lng": -122.2439861}, {"school_name": "Joaquin Miller Elementary", "school_level": "elementary", "test_1_prof_above": 63.005, "test_2_prof_above": 58.135000000000005, "eq_score": 60.57000000000001, "address": "5525 Ascot Dr.", "zipcode": 94611, "lat": 37.8188596, "lng": -122.20175659999998}, {"school_name": "Claremont Middle", "school_level": "middle", "test_1_prof_above": 58.292500000000004, "test_2_prof_above": 53.785000000000004, "eq_score": 56.03875000000001, "address": "5750 College Ave.", "zipcode": 94618, "lat": 37.8459164, "lng": -122.25103159999999}, {"school_name": "Glenview Elementary", "school_level": "elementary", "test_1_prof_above": 58.160000000000004, "test_2_prof_above": 47.66250000000001, "eq_score": 52.91125000000001, "address": "4215 La Cresta Ave.", "zipcode": 94602, "lat": 37.8056021, "lng": -122.21925290000001}, {"school_name": "Sequoia Elementary", "school_level": "elementary", "test_1_prof_above": 57.5775, "test_2_prof_above": 47.550000000000004, "eq_score": 52.56375, "address": "3730 Lincoln Ave.", "zipcode": 94602, "lat": 37.8021834, "lng": -122.2109189}, {"school_name": "Redwood Heights Elementary", "school_level": "elementary", "test_1_prof_above": 57.1775, "test_2_prof_above": 45.5675, "eq_score": 51.3725, "address": "4401 39th Ave.", "zipcode": 94619, "lat": 37.7973006, "lng": -122.18635619999999}, {"school_name": "Edna Brewer Middle", "school_level": "middle", "test_1_prof_above": 53.96, "test_2_prof_above": 47.3175, "eq_score": 50.63875, "address": "3748 13th Ave.", "zipcode": 94610, "lat": 37.8037092, "lng": -122.22935929999998}, {"school_name": "Oakland Technical High", "school_level": "high", "test_1_prof_above": 53.72, "test_2_prof_above": 34.17, "eq_score": 43.945, "address": "4351 BRd.way", "zipcode": 94611, "lat": 37.832302399999996, "lng": -122.2553866}, {"school_name": "ACORN Woodland Elementary", "school_level": "elementary", "test_1_prof_above": 41.0875, "test_2_prof_above": 42.815, "eq_score": 41.95125, "address": "1025 81st Ave.", "zipcode": 94621, "lat": 37.7529046, "lng": -122.1864449}, {"school_name": "Think College Now", "school_level": "elementary", "test_1_prof_above": 36.370000000000005, "test_2_prof_above": 34.13, "eq_score": 35.25, "address": "2825 International Blvd.", "zipcode": 94601, "lat": 37.7793766, "lng": -122.23061899999999}, {"school_name": "Bella Vista Elementary", "school_level": "elementary", "test_1_prof_above": 29.747500000000002, "test_2_prof_above": 40.445, "eq_score": 35.09625, "address": "1025 E. 28th St.", "zipcode": 94610, "lat": 37.8002026, "lng": -122.237426}, {"school_name": "Manzanita SEED Elementary", "school_level": "elementary", "test_1_prof_above": 34.79, "test_2_prof_above": 33.845, "eq_score": 34.317499999999995, "address": "2409 E. 27th St.", "zipcode": 94601, "lat": 37.7919493, "lng": -122.22479380000001}, {"school_name": "Melrose Leadership Academy", "school_level": "elementary", "test_1_prof_above": 39.40857142857143, "test_2_prof_above": 26.881428571428575, "eq_score": 33.145, "address": "4730 Fleming Ave.", "zipcode": 94619, "lat": 37.78044790000001, "lng": -122.1976185}, {"school_name": "Franklin Elementary", "school_level": "elementary", "test_1_prof_above": 34.005, "test_2_prof_above": 29.78, "eq_score": 31.892500000000002, "address": "915 Foothill Blvd.", "zipcode": 94606, "lat": 37.7935767, "lng": -122.24899309999999}, {"school_name": "Montera Middle", "school_level": "middle", "test_1_prof_above": 39.4625, "test_2_prof_above": 23.564999999999998, "eq_score": 31.513749999999998, "address": "5555 Ascot Dr.", "zipcode": 94611, "lat": 37.81965599999999, "lng": -122.2017352}, {"school_name": "Esperanza Elementary", "school_level": "elementary", "test_1_prof_above": 29.6725, "test_2_prof_above": 31.83, "eq_score": 30.75125, "address": "10315 E St.", "zipcode": 94603, "lat": 37.7372117, "lng": -122.1741615}, {"school_name": "Laurel Elementary", "school_level": "elementary", "test_1_prof_above": 30.5275, "test_2_prof_above": 27.9825, "eq_score": 29.255000000000003, "address": "3750 Brown Ave.", "zipcode": 94619, "lat": 37.7927482, "lng": -122.19664309999999}, {"school_name": "La Escuelita Elementary", "school_level": "elementary", "test_1_prof_above": 29.54571428571429, "test_2_prof_above": 26.37285714285714, "eq_score": 27.959285714285713, "address": "1100 Third Ave.", "zipcode": 94606, "lat": 37.795560200000004, "lng": -122.25702040000002}, {"school_name": "Burckhalter Elementary", "school_level": "elementary", "test_1_prof_above": 25.2775, "test_2_prof_above": 28.5775, "eq_score": 26.927500000000002, "address": "3994 Burckhalter Ave.", "zipcode": 94605, "lat": 37.775290500000004, "lng": -122.16657790000001}, {"school_name": "Coliseum College Prep Academy", "school_level": "elementary", "test_1_prof_above": 35.662, "test_2_prof_above": 17.844, "eq_score": 26.753, "address": "1390 66th Ave.", "zipcode": 94621, "lat": 37.7615544, "lng": -122.19367240000001}, {"school_name": "Garfield Elementary", "school_level": "elementary", "test_1_prof_above": 25.555, "test_2_prof_above": 27.5575, "eq_score": 26.55625, "address": "1640 22nd Ave.", "zipcode": 94606, "lat": 37.786459, "lng": -122.23569740000002}, {"school_name": "Urban Promise Academy", "school_level": "middle", "test_1_prof_above": 31.345, "test_2_prof_above": 20.5625, "eq_score": 25.95375, "address": "3031 E. 18th St.", "zipcode": 94601, "lat": 37.7819779, "lng": -122.22412890000001}, {"school_name": "Roosevelt Middle", "school_level": "middle", "test_1_prof_above": 26.115000000000002, "test_2_prof_above": 25.3825, "eq_score": 25.74875, "address": "1926 19th Ave.", "zipcode": 94606, "lat": 37.7899489, "lng": -122.2372044}, {"school_name": "Oakland High", "school_level": "high", "test_1_prof_above": 37.02, "test_2_prof_above": 12.43, "eq_score": 24.725, "address": "1023 MacArthur Blvd.", "zipcode": 94610, "lat": 37.8044662, "lng": -122.2369001}, {"school_name": "Howard Elementary", "school_level": "elementary", "test_1_prof_above": 26.6525, "test_2_prof_above": 22.245, "eq_score": 24.44875, "address": "8755 Fontaine St.", "zipcode": 94605, "lat": 37.762239, "lng": -122.15223929999999}, {"school_name": "Martin Luther King Jr. Elementary", "school_level": "elementary", "test_1_prof_above": 18.313333333333333, "test_2_prof_above": 30.36, "eq_score": 24.336666666666666, "address": "960 Tenth St.", "zipcode": 94607, "lat": 37.806023100000004, "lng": -122.28338240000001}, {"school_name": "Skyline High", "school_level": "high", "test_1_prof_above": 33.33, "test_2_prof_above": 14.91, "eq_score": 24.119999999999997, "address": "12250 Skyline Blvd.", "zipcode": 94619, "lat": 37.798392, "lng": -122.161464}, {"school_name": "Greenleaf Elementary", "school_level": "elementary", "test_1_prof_above": 28.034285714285716, "test_2_prof_above": 19.659999999999997, "eq_score": 23.847142857142856, "address": "6328 E. 17th St.", "zipcode": 94621, "lat": 37.7646844, "lng": -122.19478090000001}, {"school_name": "Carl B. Munck Elementary", "school_level": "elementary", "test_1_prof_above": 23.645, "test_2_prof_above": 23.0625, "eq_score": 23.353749999999998, "address": "11900 Campus Dr.", "zipcode": 94619, "lat": 37.7949441, "lng": -122.17402849999999}, {"school_name": "Piedmont Avenue Elementary", "school_level": "elementary", "test_1_prof_above": 23.634999999999998, "test_2_prof_above": 20.1525, "eq_score": 21.893749999999997, "address": "4314 Piedmont Ave.", "zipcode": 94611, "lat": 37.8286763, "lng": -122.2485942}, {"school_name": "Fruitvale Elementary", "school_level": "elementary", "test_1_prof_above": 23.64, "test_2_prof_above": 17.93, "eq_score": 20.785, "address": "3200 Boston Ave.", "zipcode": 94602, "lat": 37.7962778, "lng": -122.21376629999999}, {"school_name": "LIFE Academy", "school_level": "elementary", "test_1_prof_above": 27.589999999999996, "test_2_prof_above": 13.284, "eq_score": 20.436999999999998, "address": "2101 35th Ave.", "zipcode": 94601, "lat": 37.7847011, "lng": -122.21654879999998}, {"school_name": "International Community", "school_level": "elementary", "test_1_prof_above": 21.15, "test_2_prof_above": 18.7025, "eq_score": 19.92625, "address": "2825 International Blvd.", "zipcode": 94601, "lat": 37.7793766, "lng": -122.23061899999999}, {"school_name": "Parker Elementary", "school_level": "elementary", "test_1_prof_above": 26.127142857142854, "test_2_prof_above": 12.484285714285715, "eq_score": 19.305714285714284, "address": "7929 Ney Ave.", "zipcode": 94605, "lat": 37.7652106, "lng": -122.1660014}, {"school_name": "Fred T. Korematsu Discovery Academy", "school_level": "elementary", "test_1_prof_above": 18.94, "test_2_prof_above": 19.19, "eq_score": 19.065, "address": "10315 E St.", "zipcode": 94603, "lat": 37.7372117, "lng": -122.1741615}, {"school_name": "MetWest High", "school_level": "high", "test_1_prof_above": 27.5, "test_2_prof_above": 10.26, "eq_score": 18.88, "address": "314 E. Tenth St.", "zipcode": 94606, "lat": 37.79533920000001, "lng": -122.25785590000001}, {"school_name": "East Oakland Pride Elementary", "school_level": "elementary", "test_1_prof_above": 22.052500000000002, "test_2_prof_above": 12.09, "eq_score": 17.07125, "address": "8000 Birch St.", "zipcode": 94621, "lat": 37.7592062, "lng": -122.176778}, {"school_name": "Brookfield Elementary", "school_level": "elementary", "test_1_prof_above": 17.3825, "test_2_prof_above": 16.025000000000002, "eq_score": 16.70375, "address": "401 Jones Ave.", "zipcode": 94603, "lat": 37.734857899999994, "lng": -122.18923840000001}, {"school_name": "Madison Park Academy 6-12", "school_level": "elementary", "test_1_prof_above": 23.3, "test_2_prof_above": 9.708, "eq_score": 16.504, "address": "400 Capistrano Dr.", "zipcode": 94603, "lat": 37.7266434, "lng": -122.179217}, {"school_name": "Madison Park Academy TK-5", "school_level": "elementary", "test_1_prof_above": 18.7975, "test_2_prof_above": 14.1675, "eq_score": 16.4825, "address": "470 El Paseo Dr.", "zipcode": 94603, "lat": 37.7280886, "lng": -122.177044}, {"school_name": "Bret Harte Middle", "school_level": "middle", "test_1_prof_above": 18.267500000000002, "test_2_prof_above": 13.1525, "eq_score": 15.71, "address": "3700 Coolidge Ave.", "zipcode": 94602, "lat": 37.799337799999996, "lng": -122.2064993}, {"school_name": "Bridges Academy", "school_level": "elementary", "test_1_prof_above": 15.07, "test_2_prof_above": 15.5775, "eq_score": 15.32375, "address": "1325 53rd Ave.", "zipcode": 94601, "lat": 37.7674712, "lng": -122.2070645}, {"school_name": "Hoover Elementary", "school_level": "elementary", "test_1_prof_above": 17.1275, "test_2_prof_above": 12.165, "eq_score": 14.64625, "address": "890 Brockhurst St.", "zipcode": 94608, "lat": 37.823267, "lng": -122.27511409999998}, {"school_name": "McClymonds High", "school_level": "high", "test_1_prof_above": 26.74, "test_2_prof_above": 2.38, "eq_score": 14.559999999999999, "address": "2607 Myrtle St.", "zipcode": 94607, "lat": 37.818646799999996, "lng": -122.27859199999999}, {"school_name": "EnCompass Academy Elementary", "school_level": "elementary", "test_1_prof_above": 15.1725, "test_2_prof_above": 13.440000000000001, "eq_score": 14.30625, "address": "1025 81st Ave.", "zipcode": 94621, "lat": 37.7529046, "lng": -122.1864449}, {"school_name": "Prescott", "school_level": "elementary", "test_1_prof_above": 12.0025, "test_2_prof_above": 15.71, "eq_score": 13.85625, "address": "920 Campbell St.", "zipcode": 94607, "lat": 37.808724, "lng": -122.29750800000001}, {"school_name": "United for Success Academy", "school_level": "middle", "test_1_prof_above": 15.0125, "test_2_prof_above": 12.15, "eq_score": 13.58125, "address": "2101 35th Ave.", "zipcode": 94601, "lat": 37.7847011, "lng": -122.21654879999998}, {"school_name": "Grass Valley Elementary", "school_level": "elementary", "test_1_prof_above": 13.315, "test_2_prof_above": 13.77, "eq_score": 13.5425, "address": "4720 Dunkirk Ave.", "zipcode": 94605, "lat": 37.7528211, "lng": -122.12457020000001}, {"school_name": "Alliance Academy", "school_level": "middle", "test_1_prof_above": 18.275, "test_2_prof_above": 7.227499999999999, "eq_score": 12.751249999999999, "address": "1800 98th Ave.", "zipcode": 94603, "lat": 37.7461669, "lng": -122.165824}, {"school_name": "Oakland SOL (School of Language) Dual Language Middle", "school_level": "middle", "test_1_prof_above": 14.803333333333335, "test_2_prof_above": 9.783333333333333, "eq_score": 12.293333333333333, "address": "1180 70th Ave.", "zipcode": 94621, "lat": 37.7591225, "lng": -122.19094550000001}, {"school_name": "Global Family", "school_level": "elementary", "test_1_prof_above": 13.947499999999998, "test_2_prof_above": 10.4175, "eq_score": 12.1825, "address": "2035 40th Ave.", "zipcode": 94601, "lat": 37.7794661, "lng": -122.21314840000002}, {"school_name": "Emerson Elementary", "school_level": "elementary", "test_1_prof_above": 13.77, "test_2_prof_above": 10.162500000000001, "eq_score": 11.96625, "address": "4803 Lawton Ave.", "zipcode": 94609, "lat": 37.8344201, "lng": -122.25794450000001}, {"school_name": "New Highland Academy", "school_level": "elementary", "test_1_prof_above": 12.855, "test_2_prof_above": 10.057500000000001, "eq_score": 11.45625, "address": "8521 A St.", "zipcode": 94621, "lat": 37.7517189, "lng": -122.1789509}, {"school_name": "Community United Elementary", "school_level": "elementary", "test_1_prof_above": 12.9975, "test_2_prof_above": 9.75, "eq_score": 11.373750000000001, "address": "6701 International Blvd.", "zipcode": 94621, "lat": 37.76095249999999, "lng": -122.19185449999999}, {"school_name": "West Oakland Middle", "school_level": "middle", "test_1_prof_above": 13.8475, "test_2_prof_above": 8.877500000000001, "eq_score": 11.3625, "address": "991 14th St.", "zipcode": 94607, "lat": 37.8081631, "lng": -122.28221459999999}, {"school_name": "Elmhurst Community Prep", "school_level": "middle", "test_1_prof_above": 14.195, "test_2_prof_above": 8.4875, "eq_score": 11.34125, "address": "1800 98th Ave.", "zipcode": 94603, "lat": 37.7461669, "lng": -122.165824}, {"school_name": "Reach Academy", "school_level": "elementary", "test_1_prof_above": 12.267499999999998, "test_2_prof_above": 10.025, "eq_score": 11.146249999999998, "address": "9845 Bancroft Ave.", "zipcode": 94603, "lat": 37.74708770000001, "lng": -122.1613646}, {"school_name": "Allendale Elementary", "school_level": "elementary", "test_1_prof_above": 10.2025, "test_2_prof_above": 11.06, "eq_score": 10.631250000000001, "address": "3670 Penniman Ave.", "zipcode": 94619, "lat": 37.788718700000004, "lng": -122.20484520000001}, {"school_name": "Manzanita Community", "school_level": "elementary", "test_1_prof_above": 13.1525, "test_2_prof_above": 7.6425, "eq_score": 10.3975, "address": "2409 E. 27th St.", "zipcode": 94601, "lat": 37.7919493, "lng": -122.22479380000001}, {"school_name": "Fremont High", "school_level": "high", "test_1_prof_above": 17.61, "test_2_prof_above": 2.47, "eq_score": 10.04, "address": "4610 Foothill Blvd.", "zipcode": 94601, "lat": 37.7741975, "lng": -122.209378}, {"school_name": "Rise Community", "school_level": "elementary", "test_1_prof_above": 11.785, "test_2_prof_above": 8.195, "eq_score": 9.99, "address": "8521 A St.", "zipcode": 94621, "lat": 37.7517189, "lng": -122.1789509}, {"school_name": "Westlake Middle", "school_level": "middle", "test_1_prof_above": 11.905, "test_2_prof_above": 5.617500000000001, "eq_score": 8.76125, "address": "2629 Harrison St.", "zipcode": 94612, "lat": 37.8145333, "lng": -122.2608691}, {"school_name": "Sankofa Academy", "school_level": "elementary", "test_1_prof_above": 16.95, "test_2_prof_above": 0.0, "eq_score": 8.475, "address": "581 61st St.", "zipcode": 94609, "lat": 37.846884100000004, "lng": -122.2645469}, {"school_name": "Futures Elementary", "school_level": "elementary", "test_1_prof_above": 10.14, "test_2_prof_above": 6.742499999999999, "eq_score": 8.44125, "address": "6701 International Blvd.", "zipcode": 94621, "lat": 37.76095249999999, "lng": -122.19185449999999}, {"school_name": "Frick Middle", "school_level": "middle", "test_1_prof_above": 11.3525, "test_2_prof_above": 4.534999999999999, "eq_score": 7.94375, "address": "2845 64th Ave.", "zipcode": 94605, "lat": 37.771676899999996, "lng": -122.18431650000001}, {"school_name": "MLK / Lafayette Elementary", "school_level": "elementary", "test_1_prof_above": 6.557499999999999, "test_2_prof_above": 7.16, "eq_score": 6.85875, "address": "991 14th St.", "zipcode": 94607, "lat": 37.8081631, "lng": -122.28221459999999}, {"school_name": "Ralph J. Bunche High", "school_level": "high", "test_1_prof_above": 11.76, "test_2_prof_above": 0.0, "eq_score": 5.88, "address": "1240 18th St.", "zipcode": 94607, "lat": 37.8133544, "lng": -122.286943}, {"school_name": "Street Academy (Alternative)", "school_level": "high", "test_1_prof_above": 8.57, "test_2_prof_above": 2.86, "eq_score": 5.715, "address": "417 29th St.", "zipcode": 94609, "lat": 37.817569799999994, "lng": -122.265433}, {"school_name": "Castlemont High", "school_level": "high", "test_1_prof_above": 9.4, "test_2_prof_above": 0.0, "eq_score": 4.7, "address": "8601 MacArthur Blvd.", "zipcode": 94605, "lat": 37.7591887, "lng": -122.1640862}, {"school_name": "ROOTS International Academy", "school_level": "middle", "test_1_prof_above": 7.145, "test_2_prof_above": 1.15, "eq_score": 4.1475, "address": "1390 66th Ave.", "zipcode": 94621, "lat": 37.7615544, "lng": -122.19367240000001}, {"school_name": "Horace Mann Elementary", "school_level": "elementary", "test_1_prof_above": 4.17, "test_2_prof_above": 3.2175000000000002, "eq_score": 3.69375, "address": "5222 Ygnacio Ave.", "zipcode": 94601, "lat": 37.7738432, "lng": -122.20240679999999}, {"school_name": "Independent Study Sojourner Truth", "school_level": "elementary", "test_1_prof_above": 5.97, "test_2_prof_above": 0.0, "eq_score": 2.985, "address": "8251 Fontaine St.", "zipcode": 94605, "lat": 37.7655596, "lng": -122.1535826}, {"school_name": "Markham Elementary", "school_level": "elementary", "test_1_prof_above": 3.2750000000000004, "test_2_prof_above": 2.4775, "eq_score": 2.87625, "address": "7220 Krause Ave.", "zipcode": 94605, "lat": 37.7654739, "lng": -122.1787292}, {"school_name": "Oakland International High", "school_level": "high", "test_1_prof_above": 0.0, "test_2_prof_above": 5.56, "eq_score": 2.78, "address": "4521 Webster St.", "zipcode": 94609, "lat": 37.83367140000001, "lng": -122.261002}, {"school_name": "Home and Hospital Program", "school_level": "elementary", "test_1_prof_above": 0.0, "test_2_prof_above": 0.0, "eq_score": 0.0, "address": "1011 Union St.", "zipcode": 94607, "lat": 37.8074136, "lng": -122.28962309999999}, {"school_name": "Community Day High", "school_level": "high", "test_1_prof_above": 0.0, "test_2_prof_above": 0.0, "eq_score": 0.0, "address": "4917 Mountain Blvd.", "zipcode": 94619, "lat": 37.7870386, "lng": -122.177815}, {"school_name": "Community Day Middle", "school_level": "middle", "test_1_prof_above": 0.0, "test_2_prof_above": 0.0, "eq_score": 0.0, "address": "4917 Mountain Blvd.", "zipcode": 94619, "lat": 37.7870386, "lng": -122.177815}, {"school_name": "Gateway to College at Laney College", "school_level": "high", "test_1_prof_above": 0.0, "test_2_prof_above": 0.0, "eq_score": 0.0, "address": "900 Fallon St.", "zipcode": 94607, "lat": 37.79647690000001, "lng": -122.2628416}, {"school_name": "Rudsdale Continuation", "school_level": "high", "test_1_prof_above": 0.0, "test_2_prof_above": 0.0, "eq_score": 0.0, "address": "8251 Fontaine St.", "zipcode": 94605, "lat": 37.7655596, "lng": -122.1535826}, {"school_name": "Dewey Academy", "school_level": "high", "test_1_prof_above": 0.0, "test_2_prof_above": 0.0, "eq_score": 0.0, "address": "1111 2nd Ave.", "zipcode": 94606, "lat": 37.7968463, "lng": -122.25816609999998}], "data-b0eb712ac1227ccb6b3f72ee740f30b6": [{"school_name": "Hillcrest Elementary", "school_level": "elementary", "test_1_prof_above": 87.02178571428571, "test_2_prof_above": 83.23357142857144, "eq_score": 85.12767857142858, "address": "30 Marguerite Dr.", "zipcode": 94618, "lat": 37.8407556, "lng": -122.23246189999999, "test_1_demo_diff": 37.91831276058812, "test_2_demo_diff": 38.38691897081414, "eq_demo_diff": 38.15261586570114}, {"school_name": "Chabot Elementary", "school_level": "elementary", "test_1_prof_above": 81.30812499999999, "test_2_prof_above": 82.53625, "eq_score": 81.92218749999999, "address": "6686 Chabot Rd.", "zipcode": 94618, "lat": 37.8505437, "lng": -122.2409115, "test_1_demo_diff": 32.2046520463024, "test_2_demo_diff": 37.6895975422427, "eq_demo_diff": 34.947124794272554}, {"school_name": "Crocker Highlands Elementary", "school_level": "elementary", "test_1_prof_above": 83.18062499999999, "test_2_prof_above": 79.009375, "eq_score": 81.095, "address": "525 Midcrest Rd.", "zipcode": 94610, "lat": 37.8110651, "lng": -122.2272317, "test_1_demo_diff": 34.0771520463024, "test_2_demo_diff": 34.16272254224271, "eq_demo_diff": 34.11993729427256}, {"school_name": "Thornhill Elementary", "school_level": "elementary", "test_1_prof_above": 86.6109375, "test_2_prof_above": 74.94343750000002, "eq_score": 80.77718750000001, "address": "5880 Thornhill Dr.", "zipcode": 94611, "lat": 37.835910600000005, "lng": -122.21101440000001, "test_1_demo_diff": 37.507464546302415, "test_2_demo_diff": 30.096785042242722, "eq_demo_diff": 33.80212479427257}, {"school_name": "Peralta Elementary", "school_level": "elementary", "test_1_prof_above": 80.7184375, "test_2_prof_above": 79.195, "eq_score": 79.95671875, "address": "460 63rd St.", "zipcode": 94609, "lat": 37.849492, "lng": -122.2586978, "test_1_demo_diff": 31.614964546302403, "test_2_demo_diff": 34.3483475422427, "eq_demo_diff": 32.981656044272555}, {"school_name": "Montclair Elementary", "school_level": "elementary", "test_1_prof_above": 81.2715625, "test_2_prof_above": 70.1790625, "eq_score": 75.7253125, "address": "1757 Mountain Blvd.", "zipcode": 94611, "lat": 37.830872, "lng": -122.21286940000002, "test_1_demo_diff": 32.16808954630241, "test_2_demo_diff": 25.332410042242707, "eq_demo_diff": 28.750249794272563}, {"school_name": "Kaiser Elementary", "school_level": "elementary", "test_1_prof_above": 71.1565625, "test_2_prof_above": 71.7515625, "eq_score": 71.4540625, "address": "25 S. Hill Ct.", "zipcode": 94618, "lat": 37.8527693, "lng": -122.2315311, "test_1_demo_diff": 22.053089546302417, "test_2_demo_diff": 26.90491004224271, "eq_demo_diff": 24.478999794272568}, {"school_name": "Joaquin Miller Elementary", "school_level": "elementary", "test_1_prof_above": 70.195625, "test_2_prof_above": 64.82125, "eq_score": 67.50843750000001, "address": "5525 Ascot Dr.", "zipcode": 94611, "lat": 37.8188596, "lng": -122.20175659999998, "test_1_demo_diff": 21.092152046302417, "test_2_demo_diff": 19.974597542242712, "eq_demo_diff": 20.533374794272575}, {"school_name": "Cleveland Elementary", "school_level": "elementary", "test_1_prof_above": 64.49406250000001, "test_2_prof_above": 61.48406249999999, "eq_score": 62.9890625, "address": "745 Cleveland St.", "zipcode": 94606, "lat": 37.804029299999996, "lng": -122.2439861, "test_1_demo_diff": 15.390589546302422, "test_2_demo_diff": 16.6374100422427, "eq_demo_diff": 16.013999794272564}, {"school_name": "Glenview Elementary", "school_level": "elementary", "test_1_prof_above": 65.7934375, "test_2_prof_above": 55.281875, "eq_score": 60.53765625, "address": "4215 La Cresta Ave.", "zipcode": 94602, "lat": 37.8056021, "lng": -122.21925290000001, "test_1_demo_diff": 16.689964546302406, "test_2_demo_diff": 10.435222542242705, "eq_demo_diff": 13.56259354427256}, {"school_name": "Sequoia Elementary", "school_level": "elementary", "test_1_prof_above": 65.9825, "test_2_prof_above": 54.1921875, "eq_score": 60.08734375, "address": "3730 Lincoln Ave.", "zipcode": 94602, "lat": 37.8021834, "lng": -122.2109189, "test_1_demo_diff": 16.87902704630241, "test_2_demo_diff": 9.345535042242709, "eq_demo_diff": 13.112281044272564}, {"school_name": "Redwood Heights Elementary", "school_level": "elementary", "test_1_prof_above": 64.356875, "test_2_prof_above": 51.803749999999994, "eq_score": 58.0803125, "address": "4401 39th Ave.", "zipcode": 94619, "lat": 37.7973006, "lng": -122.18635619999999, "test_1_demo_diff": 15.253402046302412, "test_2_demo_diff": 6.9570975422427, "eq_demo_diff": 11.10524979427256}, {"school_name": "Lincoln Elementary", "school_level": "elementary", "test_1_prof_above": 53.386250000000004, "test_2_prof_above": 61.17656249999999, "eq_score": 57.281406249999996, "address": "225 11th St.", "zipcode": 94607, "lat": 37.799725099999996, "lng": -122.26702820000001, "test_1_demo_diff": 4.282777046302414, "test_2_demo_diff": 16.329910042242695, "eq_demo_diff": 10.306343544272558}, {"school_name": "Claremont Middle", "school_level": "middle", "test_1_prof_above": 58.9278125, "test_2_prof_above": 55.1815625, "eq_score": 57.0546875, "address": "5750 College Ave.", "zipcode": 94618, "lat": 37.8459164, "lng": -122.25103159999999, "test_1_demo_diff": 9.824339546302411, "test_2_demo_diff": 10.334910042242704, "eq_demo_diff": 10.079624794272561}, {"school_name": "Edna Brewer Middle", "school_level": "middle", "test_1_prof_above": 57.2009375, "test_2_prof_above": 50.24375, "eq_score": 53.72234375, "address": "3748 13th Ave.", "zipcode": 94610, "lat": 37.8037092, "lng": -122.22935929999998, "test_1_demo_diff": 8.097464546302412, "test_2_demo_diff": 5.3970975422427045, "eq_demo_diff": 6.747281044272562}, {"school_name": "Oakland Technical High", "school_level": "high", "test_1_prof_above": 55.800000000000004, "test_2_prof_above": 33.905, "eq_score": 44.852500000000006, "address": "4351 BRd.way", "zipcode": 94611, "lat": 37.832302399999996, "lng": -122.2553866, "test_1_demo_diff": 6.696527046302414, "test_2_demo_diff": -10.941652457757293, "eq_demo_diff": -2.1225627057274323}, {"school_name": "Manzanita SEED Elementary", "school_level": "elementary", "test_1_prof_above": 41.06375, "test_2_prof_above": 38.5815625, "eq_score": 39.822656249999994, "address": "2409 E. 27th St.", "zipcode": 94601, "lat": 37.7919493, "lng": -122.22479380000001, "test_1_demo_diff": -8.039722953697591, "test_2_demo_diff": -6.265089957757297, "eq_demo_diff": -7.152406455727444}, {"school_name": "Montera Middle", "school_level": "middle", "test_1_prof_above": 46.1525, "test_2_prof_above": 28.3846875, "eq_score": 37.26859375, "address": "5555 Ascot Dr.", "zipcode": 94611, "lat": 37.81965599999999, "lng": -122.2017352, "test_1_demo_diff": -2.950972953697587, "test_2_demo_diff": -16.461964957757296, "eq_demo_diff": -9.706468955727438}, {"school_name": "Melrose Leadership Academy", "school_level": "elementary", "test_1_prof_above": 38.915, "test_2_prof_above": 27.874999999999996, "eq_score": 33.394999999999996, "address": "4730 Fleming Ave.", "zipcode": 94619, "lat": 37.78044790000001, "lng": -122.1976185, "test_1_demo_diff": -10.188472953697591, "test_2_demo_diff": -16.971652457757298, "eq_demo_diff": -13.580062705727443}, {"school_name": "Skyline High", "school_level": "high", "test_1_prof_above": 35.931250000000006, "test_2_prof_above": 23.56125, "eq_score": 29.746250000000003, "address": "12250 Skyline Blvd.", "zipcode": 94619, "lat": 37.798392, "lng": -122.161464, "test_1_demo_diff": -13.172222953697585, "test_2_demo_diff": -21.285402457757293, "eq_demo_diff": -17.228812705727435}]}}