{"config": {"background": "white", "view": {"width": 400, "height": 300}, "mark": {"tooltip": null}}, "layer": [{"data": {"url": "https://data.oaklandnet.com/api/geospatial/9bhq-yt6w?method=export&format=GeoJSON", "format": {"feature": "Oakland", "type": "topojson"}}, "mark": {"type": "geoshape", "fill": "lightgray", "stroke": "darkgray"}, "projection": {"type": "albersUsa"}, "title": "Elementary Schools in Oakland"}, {"data": {"name": "data-9458136f33c8925dd64e99cfd3150967"}, "mark": "circle", "encoding": {"color": {"type": "quantitative", "bin": {"extent": [0, 100], "step": 15}, "field": "eq_score", "scale": {"scheme": "spectral"}, "title": "Equity Score"}, "latitude": {"field": "lat", "type": "quantitative"}, "longitude": {"field": "lng", "type": "quantitative"}, "size": {"condition": {"value": 250, "selection": {"not": "selector029"}}, "value": 600}, "tooltip": [{"type": "nominal", "field": "school_name", "title": "School"}, {"type": "nominal", "field": "address", "title": "Address"}, {"type": "nominal", "field": "school_level", "title": "School Level"}, {"type": "quantitative", "field": "eq_score", "title": "Balanced Equity Score"}]}, "selection": {"selector028": {"type": "single", "empty": "all", "fields": ["school_name"]}, "selector029": {"type": "single", "on": "mouseover", "fields": ["school_name"]}}}], "$schema": "https://vega.github.io/schema/vega-lite/v3.4.0.json", "datasets": {"data-9458136f33c8925dd64e99cfd3150967": [{"school_name": "Montclair Elementary", "school_level": "elementary", "test_1_prof_above": 74.3475, "test_2_prof_above": 57.355000000000004, "eq_score": 65.85125, "address": "1757 Mountain Blvd.", "zipcode": 94611, "lat": 37.830872, "lng": -122.21286940000002, "test_1_demo_diff": 43.12918321226797, "test_2_demo_diff": 29.528911622276038, "eq_demo_diff": 36.329047417271994}, {"school_name": "Thornhill Elementary", "school_level": "elementary", "test_1_prof_above": 71.97285714285715, "test_2_prof_above": 57.96714285714285, "eq_score": 64.97, "address": "5880 Thornhill Dr.", "zipcode": 94611, "lat": 37.835910600000005, "lng": -122.21101440000001, "test_1_demo_diff": 40.75454035512512, "test_2_demo_diff": 30.141054479418887, "eq_demo_diff": 35.447797417272}, {"school_name": "Crocker Highlands Elementary", "school_level": "elementary", "test_1_prof_above": 56.407500000000006, "test_2_prof_above": 51.74250000000001, "eq_score": 54.075, "address": "525 Midcrest Rd.", "zipcode": 94610, "lat": 37.8110651, "lng": -122.2272317, "test_1_demo_diff": 25.189183212267977, "test_2_demo_diff": 23.91641162227604, "eq_demo_diff": 24.552797417272004}, {"school_name": "Joaquin Miller Elementary", "school_level": "elementary", "test_1_prof_above": 58.11375, "test_2_prof_above": 48.21875000000001, "eq_score": 53.166250000000005, "address": "5525 Ascot Dr.", "zipcode": 94611, "lat": 37.8188596, "lng": -122.20175659999998, "test_1_demo_diff": 26.895433212267974, "test_2_demo_diff": 20.39266162227604, "eq_demo_diff": 23.644047417272006}, {"school_name": "Peralta Elementary", "school_level": "elementary", "test_1_prof_above": 53.15125, "test_2_prof_above": 44.57125, "eq_score": 48.86125, "address": "460 63rd St.", "zipcode": 94609, "lat": 37.849492, "lng": -122.2586978, "test_1_demo_diff": 21.93293321226797, "test_2_demo_diff": 16.745161622276033, "eq_demo_diff": 19.339047417272}, {"school_name": "Kaiser Elementary", "school_level": "elementary", "test_1_prof_above": 48.56999999999999, "test_2_prof_above": 45.802499999999995, "eq_score": 47.186249999999994, "address": "25 S. Hill Ct.", "zipcode": 94618, "lat": 37.8527693, "lng": -122.2315311, "test_1_demo_diff": 17.351683212267965, "test_2_demo_diff": 17.97641162227603, "eq_demo_diff": 17.664047417271995}, {"school_name": "Chabot Elementary", "school_level": "elementary", "test_1_prof_above": 47.40875, "test_2_prof_above": 45.387499999999996, "eq_score": 46.39812499999999, "address": "6686 Chabot Rd.", "zipcode": 94618, "lat": 37.8505437, "lng": -122.2409115, "test_1_demo_diff": 16.19043321226797, "test_2_demo_diff": 17.56141162227603, "eq_demo_diff": 16.875922417271994}, {"school_name": "Hillcrest Elementary", "school_level": "elementary", "test_1_prof_above": 44.78071428571428, "test_2_prof_above": 44.40428571428572, "eq_score": 44.5925, "address": "30 Marguerite Dr.", "zipcode": 94618, "lat": 37.8407556, "lng": -122.23246189999999, "test_1_demo_diff": 13.562397497982253, "test_2_demo_diff": 16.578197336561754, "eq_demo_diff": 15.070297417272002}, {"school_name": "Cleveland Elementary", "school_level": "elementary", "test_1_prof_above": 45.69875, "test_2_prof_above": 41.6225, "eq_score": 43.660624999999996, "address": "745 Cleveland St.", "zipcode": 94606, "lat": 37.804029299999996, "lng": -122.2439861, "test_1_demo_diff": 14.480433212267968, "test_2_demo_diff": 13.796411622276036, "eq_demo_diff": 14.138422417271997}, {"school_name": "Lincoln Elementary", "school_level": "elementary", "test_1_prof_above": 41.23625, "test_2_prof_above": 45.105, "eq_score": 43.170625, "address": "225 11th St.", "zipcode": 94607, "lat": 37.799725099999996, "lng": -122.26702820000001, "test_1_demo_diff": 10.01793321226797, "test_2_demo_diff": 17.27891162227603, "eq_demo_diff": 13.648422417272002}, {"school_name": "Sequoia Elementary", "school_level": "elementary", "test_1_prof_above": 49.06125, "test_2_prof_above": 33.84, "eq_score": 41.450625, "address": "3730 Lincoln Ave.", "zipcode": 94602, "lat": 37.8021834, "lng": -122.2109189, "test_1_demo_diff": 17.842933212267972, "test_2_demo_diff": 6.013911622276037, "eq_demo_diff": 11.928422417272003}, {"school_name": "Redwood Heights Elementary", "school_level": "elementary", "test_1_prof_above": 46.98, "test_2_prof_above": 32.53, "eq_score": 39.754999999999995, "address": "4401 39th Ave.", "zipcode": 94619, "lat": 37.7973006, "lng": -122.18635619999999, "test_1_demo_diff": 15.761683212267968, "test_2_demo_diff": 4.703911622276035, "eq_demo_diff": 10.232797417271996}, {"school_name": "Glenview Elementary", "school_level": "elementary", "test_1_prof_above": 35.103750000000005, "test_2_prof_above": 23.64, "eq_score": 29.371875000000003, "address": "4215 La Cresta Ave.", "zipcode": 94602, "lat": 37.8056021, "lng": -122.21925290000001, "test_1_demo_diff": 3.8854332122679764, "test_2_demo_diff": -4.186088377723966, "eq_demo_diff": -0.1503275827279964}, {"school_name": "Think College Now", "school_level": "elementary", "test_1_prof_above": 29.040000000000003, "test_2_prof_above": 24.515, "eq_score": 26.777500000000003, "address": "2825 International Blvd.", "zipcode": 94601, "lat": 37.7793766, "lng": -122.23061899999999, "test_1_demo_diff": -2.178316787732026, "test_2_demo_diff": -3.3110883777239657, "eq_demo_diff": -2.744702582727996}, {"school_name": "Bella Vista Elementary", "school_level": "elementary", "test_1_prof_above": 27.427500000000002, "test_2_prof_above": 25.85, "eq_score": 26.63875, "address": "1025 E. 28th St.", "zipcode": 94610, "lat": 37.8002026, "lng": -122.237426, "test_1_demo_diff": -3.7908167877320267, "test_2_demo_diff": -1.9760883777239648, "eq_demo_diff": -2.8834525827279975}, {"school_name": "Martin Luther King Jr. Elementary", "school_level": "elementary", "test_1_prof_above": 20.925, "test_2_prof_above": 29.956666666666667, "eq_score": 25.440833333333334, "address": "960 Tenth St.", "zipcode": 94607, "lat": 37.806023100000004, "lng": -122.28338240000001, "test_1_demo_diff": -10.293316787732028, "test_2_demo_diff": 2.1305782889427007, "eq_demo_diff": -4.081369249394665}, {"school_name": "Laurel Elementary", "school_level": "elementary", "test_1_prof_above": 26.07625, "test_2_prof_above": 23.45625, "eq_score": 24.76625, "address": "3750 Brown Ave.", "zipcode": 94619, "lat": 37.7927482, "lng": -122.19664309999999, "test_1_demo_diff": -5.142066787732027, "test_2_demo_diff": -4.3698383777239656, "eq_demo_diff": -4.755952582728}, {"school_name": "Esperanza Elementary", "school_level": "elementary", "test_1_prof_above": 26.533333333333335, "test_2_prof_above": 20.938333333333333, "eq_score": 23.735833333333332, "address": "10315 E St.", "zipcode": 94603, "lat": 37.7372117, "lng": -122.1741615, "test_1_demo_diff": -4.684983454398694, "test_2_demo_diff": -6.887755044390634, "eq_demo_diff": -5.786369249394667}, {"school_name": "Burckhalter Elementary", "school_level": "elementary", "test_1_prof_above": 21.63375, "test_2_prof_above": 23.36, "eq_score": 22.496875, "address": "3994 Burckhalter Ave.", "zipcode": 94605, "lat": 37.775290500000004, "lng": -122.16657790000001, "test_1_demo_diff": -9.58456678773203, "test_2_demo_diff": -4.466088377723967, "eq_demo_diff": -7.025327582728}, {"school_name": "ACORN Woodland Elementary", "school_level": "elementary", "test_1_prof_above": 22.71, "test_2_prof_above": 18.23625, "eq_score": 20.473125, "address": "1025 81st Ave.", "zipcode": 94621, "lat": 37.7529046, "lng": -122.1864449, "test_1_demo_diff": -8.508316787732028, "test_2_demo_diff": -9.589838377723968, "eq_demo_diff": -9.049077582728}, {"school_name": "Manzanita SEED Elementary", "school_level": "elementary", "test_1_prof_above": 21.096249999999998, "test_2_prof_above": 19.7025, "eq_score": 20.399375, "address": "2409 E. 27th St.", "zipcode": 94601, "lat": 37.7919493, "lng": -122.22479380000001, "test_1_demo_diff": -10.122066787732031, "test_2_demo_diff": -8.123588377723966, "eq_demo_diff": -9.122827582728}, {"school_name": "Melrose Leadership Academy", "school_level": "elementary", "test_1_prof_above": 24.70928571428571, "test_2_prof_above": 14.625, "eq_score": 19.667142857142856, "address": "4730 Fleming Ave.", "zipcode": 94619, "lat": 37.78044790000001, "lng": -122.1976185, "test_1_demo_diff": -6.5090310734463195, "test_2_demo_diff": -13.201088377723966, "eq_demo_diff": -9.855059725585143}, {"school_name": "Garfield Elementary", "school_level": "elementary", "test_1_prof_above": 18.028750000000002, "test_2_prof_above": 19.665, "eq_score": 18.846875, "address": "1640 22nd Ave.", "zipcode": 94606, "lat": 37.786459, "lng": -122.23569740000002, "test_1_demo_diff": -13.189566787732026, "test_2_demo_diff": -8.161088377723967, "eq_demo_diff": -10.675327582727999}, {"school_name": "Franklin Elementary", "school_level": "elementary", "test_1_prof_above": 21.509999999999998, "test_2_prof_above": 15.7775, "eq_score": 18.643749999999997, "address": "915 Foothill Blvd.", "zipcode": 94606, "lat": 37.7935767, "lng": -122.24899309999999, "test_1_demo_diff": -9.70831678773203, "test_2_demo_diff": -12.048588377723966, "eq_demo_diff": -10.878452582728002}, {"school_name": "Coliseum College Prep Academy", "school_level": "elementary", "test_1_prof_above": 23.825, "test_2_prof_above": 11.77, "eq_score": 17.7975, "address": "1390 66th Ave.", "zipcode": 94621, "lat": 37.7615544, "lng": -122.19367240000001, "test_1_demo_diff": -7.393316787732029, "test_2_demo_diff": -16.056088377723967, "eq_demo_diff": -11.724702582728}, {"school_name": "Fruitvale Elementary", "school_level": "elementary", "test_1_prof_above": 19.4375, "test_2_prof_above": 16.09125, "eq_score": 17.764375, "address": "3200 Boston Ave.", "zipcode": 94602, "lat": 37.7962778, "lng": -122.21376629999999, "test_1_demo_diff": -11.780816787732029, "test_2_demo_diff": -11.734838377723968, "eq_demo_diff": -11.757827582727998}, {"school_name": "La Escuelita Elementary", "school_level": "elementary", "test_1_prof_above": 18.670714285714286, "test_2_prof_above": 15.307142857142855, "eq_score": 16.98892857142857, "address": "1100 Third Ave.", "zipcode": 94606, "lat": 37.795560200000004, "lng": -122.25702040000002, "test_1_demo_diff": -12.547602502017742, "test_2_demo_diff": -12.518945520581111, "eq_demo_diff": -12.53327401129943}, {"school_name": "Howard Elementary", "school_level": "elementary", "test_1_prof_above": 19.337500000000002, "test_2_prof_above": 13.0125, "eq_score": 16.175, "address": "8755 Fontaine St.", "zipcode": 94605, "lat": 37.762239, "lng": -122.15223929999999, "test_1_demo_diff": -11.880816787732027, "test_2_demo_diff": -14.813588377723967, "eq_demo_diff": -13.347202582727999}, {"school_name": "East Oakland Pride Elementary", "school_level": "elementary", "test_1_prof_above": 22.84625, "test_2_prof_above": 8.587499999999999, "eq_score": 15.716875, "address": "8000 Birch St.", "zipcode": 94621, "lat": 37.7592062, "lng": -122.176778, "test_1_demo_diff": -8.372066787732027, "test_2_demo_diff": -19.238588377723968, "eq_demo_diff": -13.805327582728}, {"school_name": "Parker Elementary", "school_level": "elementary", "test_1_prof_above": 24.067857142857143, "test_2_prof_above": 6.74, "eq_score": 15.403928571428573, "address": "7929 Ney Ave.", "zipcode": 94605, "lat": 37.7652106, "lng": -122.1660014, "test_1_demo_diff": -7.150459644874886, "test_2_demo_diff": -21.086088377723968, "eq_demo_diff": -14.118274011299427}, {"school_name": "Grass Valley Elementary", "school_level": "elementary", "test_1_prof_above": 16.298750000000002, "test_2_prof_above": 13.637500000000001, "eq_score": 14.968125, "address": "4720 Dunkirk Ave.", "zipcode": 94605, "lat": 37.7528211, "lng": -122.12457020000001, "test_1_demo_diff": -14.919566787732027, "test_2_demo_diff": -14.188588377723965, "eq_demo_diff": -14.554077582727999}, {"school_name": "Piedmont Avenue Elementary", "school_level": "elementary", "test_1_prof_above": 16.93125, "test_2_prof_above": 12.9825, "eq_score": 14.956875, "address": "4314 Piedmont Ave.", "zipcode": 94611, "lat": 37.8286763, "lng": -122.2485942, "test_1_demo_diff": -14.28706678773203, "test_2_demo_diff": -14.843588377723966, "eq_demo_diff": -14.565327582727999}, {"school_name": "Carl B. Munck Elementary", "school_level": "elementary", "test_1_prof_above": 12.473749999999999, "test_2_prof_above": 17.43125, "eq_score": 14.952499999999999, "address": "11900 Campus Dr.", "zipcode": 94619, "lat": 37.7949441, "lng": -122.17402849999999, "test_1_demo_diff": -18.74456678773203, "test_2_demo_diff": -10.394838377723968, "eq_demo_diff": -14.569702582728}, {"school_name": "Brookfield Elementary", "school_level": "elementary", "test_1_prof_above": 15.094999999999999, "test_2_prof_above": 13.4925, "eq_score": 14.29375, "address": "401 Jones Ave.", "zipcode": 94603, "lat": 37.734857899999994, "lng": -122.18923840000001, "test_1_demo_diff": -16.12331678773203, "test_2_demo_diff": -14.333588377723967, "eq_demo_diff": -15.228452582728}, {"school_name": "International Community", "school_level": "elementary", "test_1_prof_above": 15.896666666666667, "test_2_prof_above": 12.071666666666667, "eq_score": 13.984166666666667, "address": "2825 International Blvd.", "zipcode": 94601, "lat": 37.7793766, "lng": -122.23061899999999, "test_1_demo_diff": -15.321650121065362, "test_2_demo_diff": -15.754421711057299, "eq_demo_diff": -15.538035916061332}, {"school_name": "Madison Park Academy 6-12", "school_level": "elementary", "test_1_prof_above": 22.108, "test_2_prof_above": 4.63, "eq_score": 13.369, "address": "400 Capistrano Dr.", "zipcode": 94603, "lat": 37.7266434, "lng": -122.179217, "test_1_demo_diff": -9.110316787732028, "test_2_demo_diff": -23.196088377723967, "eq_demo_diff": -16.153202582728}, {"school_name": "Greenleaf Elementary", "school_level": "elementary", "test_1_prof_above": 17.337142857142855, "test_2_prof_above": 8.934285714285714, "eq_score": 13.135714285714284, "address": "6328 E. 17th St.", "zipcode": 94621, "lat": 37.7646844, "lng": -122.19478090000001, "test_1_demo_diff": -13.881173930589174, "test_2_demo_diff": -18.891802663438252, "eq_demo_diff": -16.386488297013713}, {"school_name": "Fred T. Korematsu Discovery Academy", "school_level": "elementary", "test_1_prof_above": 13.642499999999998, "test_2_prof_above": 11.93125, "eq_score": 12.786874999999998, "address": "10315 E St.", "zipcode": 94603, "lat": 37.7372117, "lng": -122.1741615, "test_1_demo_diff": -17.57581678773203, "test_2_demo_diff": -15.894838377723966, "eq_demo_diff": -16.735327582728}, {"school_name": "Madison Park Academy TK-5", "school_level": "elementary", "test_1_prof_above": 17.707500000000003, "test_2_prof_above": 6.289999999999999, "eq_score": 11.998750000000001, "address": "470 El Paseo Dr.", "zipcode": 94603, "lat": 37.7280886, "lng": -122.177044, "test_1_demo_diff": -13.510816787732026, "test_2_demo_diff": -21.536088377723967, "eq_demo_diff": -17.523452582727998}, {"school_name": "Manzanita Community", "school_level": "elementary", "test_1_prof_above": 15.09875, "test_2_prof_above": 8.817499999999999, "eq_score": 11.958124999999999, "address": "2409 E. 27th St.", "zipcode": 94601, "lat": 37.7919493, "lng": -122.22479380000001, "test_1_demo_diff": -16.119566787732026, "test_2_demo_diff": -19.008588377723967, "eq_demo_diff": -17.564077582728}, {"school_name": "LIFE Academy", "school_level": "elementary", "test_1_prof_above": 16.809, "test_2_prof_above": 5.577999999999999, "eq_score": 11.1935, "address": "2101 35th Ave.", "zipcode": 94601, "lat": 37.7847011, "lng": -122.21654879999998, "test_1_demo_diff": -14.409316787732028, "test_2_demo_diff": -22.248088377723967, "eq_demo_diff": -18.328702582728}, {"school_name": "Hoover Elementary", "school_level": "elementary", "test_1_prof_above": 14.21375, "test_2_prof_above": 8.059999999999999, "eq_score": 11.136875, "address": "890 Brockhurst St.", "zipcode": 94608, "lat": 37.823267, "lng": -122.27511409999998, "test_1_demo_diff": -17.00456678773203, "test_2_demo_diff": -19.766088377723968, "eq_demo_diff": -18.385327582728}, {"school_name": "Rise Community", "school_level": "elementary", "test_1_prof_above": 14.58875, "test_2_prof_above": 5.753750000000001, "eq_score": 10.17125, "address": "8521 A St.", "zipcode": 94621, "lat": 37.7517189, "lng": -122.1789509, "test_1_demo_diff": -16.62956678773203, "test_2_demo_diff": -22.072338377723966, "eq_demo_diff": -19.350952582728}, {"school_name": "Emerson Elementary", "school_level": "elementary", "test_1_prof_above": 11.684999999999999, "test_2_prof_above": 6.8625, "eq_score": 9.27375, "address": "4803 Lawton Ave.", "zipcode": 94609, "lat": 37.8344201, "lng": -122.25794450000001, "test_1_demo_diff": -19.53331678773203, "test_2_demo_diff": -20.963588377723966, "eq_demo_diff": -20.248452582728}, {"school_name": "Sankofa Academy", "school_level": "elementary", "test_1_prof_above": 17.3625, "test_2_prof_above": 0.0, "eq_score": 8.68125, "address": "581 61st St.", "zipcode": 94609, "lat": 37.846884100000004, "lng": -122.2645469, "test_1_demo_diff": -13.855816787732028, "test_2_demo_diff": -27.826088377723966, "eq_demo_diff": -20.840952582728}, {"school_name": "Reach Academy", "school_level": "elementary", "test_1_prof_above": 11.85375, "test_2_prof_above": 5.23, "eq_score": 8.541875000000001, "address": "9845 Bancroft Ave.", "zipcode": 94603, "lat": 37.74708770000001, "lng": -122.1613646, "test_1_demo_diff": -19.36456678773203, "test_2_demo_diff": -22.596088377723966, "eq_demo_diff": -20.980327582728}, {"school_name": "Community United Elementary", "school_level": "elementary", "test_1_prof_above": 8.10625, "test_2_prof_above": 8.2725, "eq_score": 8.189375, "address": "6701 International Blvd.", "zipcode": 94621, "lat": 37.76095249999999, "lng": -122.19185449999999, "test_1_demo_diff": -23.11206678773203, "test_2_demo_diff": -19.553588377723965, "eq_demo_diff": -21.332827582728}, {"school_name": "Bridges Academy", "school_level": "elementary", "test_1_prof_above": 8.6475, "test_2_prof_above": 6.42, "eq_score": 7.53375, "address": "1325 53rd Ave.", "zipcode": 94601, "lat": 37.7674712, "lng": -122.2070645, "test_1_demo_diff": -22.570816787732028, "test_2_demo_diff": -21.406088377723968, "eq_demo_diff": -21.988452582727998}, {"school_name": "New Highland Academy", "school_level": "elementary", "test_1_prof_above": 7.73125, "test_2_prof_above": 6.8774999999999995, "eq_score": 7.304375, "address": "8521 A St.", "zipcode": 94621, "lat": 37.7517189, "lng": -122.1789509, "test_1_demo_diff": -23.48706678773203, "test_2_demo_diff": -20.948588377723965, "eq_demo_diff": -22.217827582728}, {"school_name": "Allendale Elementary", "school_level": "elementary", "test_1_prof_above": 8.591249999999999, "test_2_prof_above": 5.5525, "eq_score": 7.0718749999999995, "address": "3670 Penniman Ave.", "zipcode": 94619, "lat": 37.788718700000004, "lng": -122.20484520000001, "test_1_demo_diff": -22.62706678773203, "test_2_demo_diff": -22.273588377723968, "eq_demo_diff": -22.450327582728}, {"school_name": "MLK / Lafayette Elementary", "school_level": "elementary", "test_1_prof_above": 5.828571428571428, "test_2_prof_above": 7.191428571428572, "eq_score": 6.51, "address": "991 14th St.", "zipcode": 94607, "lat": 37.8081631, "lng": -122.28221459999999, "test_1_demo_diff": -25.3897453591606, "test_2_demo_diff": -20.634659806295396, "eq_demo_diff": -23.012202582728}, {"school_name": "Global Family", "school_level": "elementary", "test_1_prof_above": 8.243749999999999, "test_2_prof_above": 4.69875, "eq_score": 6.4712499999999995, "address": "2035 40th Ave.", "zipcode": 94601, "lat": 37.7794661, "lng": -122.21314840000002, "test_1_demo_diff": -22.97456678773203, "test_2_demo_diff": -23.127338377723966, "eq_demo_diff": -23.050952582728}, {"school_name": "EnCompass Academy Elementary", "school_level": "elementary", "test_1_prof_above": 9.09375, "test_2_prof_above": 3.7737499999999997, "eq_score": 6.43375, "address": "1025 81st Ave.", "zipcode": 94621, "lat": 37.7529046, "lng": -122.1864449, "test_1_demo_diff": -22.12456678773203, "test_2_demo_diff": -24.052338377723967, "eq_demo_diff": -23.088452582728}, {"school_name": "Futures Elementary", "school_level": "elementary", "test_1_prof_above": 8.329999999999998, "test_2_prof_above": 3.87, "eq_score": 6.1, "address": "6701 International Blvd.", "zipcode": 94621, "lat": 37.76095249999999, "lng": -122.19185449999999, "test_1_demo_diff": -22.88831678773203, "test_2_demo_diff": -23.956088377723965, "eq_demo_diff": -23.422202582727998}, {"school_name": "Prescott", "school_level": "elementary", "test_1_prof_above": 3.92875, "test_2_prof_above": 3.3662499999999995, "eq_score": 3.6475, "address": "920 Campbell St.", "zipcode": 94607, "lat": 37.808724, "lng": -122.29750800000001, "test_1_demo_diff": -27.289566787732028, "test_2_demo_diff": -24.459838377723965, "eq_demo_diff": -25.874702582728}, {"school_name": "Independent Study Sojourner Truth", "school_level": "elementary", "test_1_prof_above": 4.5227272727272725, "test_2_prof_above": 0.0, "eq_score": 2.2613636363636362, "address": "8251 Fontaine St.", "zipcode": 94605, "lat": 37.7655596, "lng": -122.1535826, "test_1_demo_diff": -26.695589515004755, "test_2_demo_diff": -27.826088377723966, "eq_demo_diff": -27.260838946364363}, {"school_name": "Markham Elementary", "school_level": "elementary", "test_1_prof_above": 2.95, "test_2_prof_above": 1.1475, "eq_score": 2.04875, "address": "7220 Krause Ave.", "zipcode": 94605, "lat": 37.7654739, "lng": -122.1787292, "test_1_demo_diff": -28.26831678773203, "test_2_demo_diff": -26.678588377723965, "eq_demo_diff": -27.473452582728}, {"school_name": "Horace Mann Elementary", "school_level": "elementary", "test_1_prof_above": 1.29, "test_2_prof_above": 1.8425, "eq_score": 1.5662500000000001, "address": "5222 Ygnacio Ave.", "zipcode": 94601, "lat": 37.7738432, "lng": -122.20240679999999, "test_1_demo_diff": -29.92831678773203, "test_2_demo_diff": -25.983588377723965, "eq_demo_diff": -27.955952582728}, {"school_name": "Home and Hospital Program", "school_level": "elementary", "test_1_prof_above": 0.0, "test_2_prof_above": 0.0, "eq_score": 0.0, "address": "1011 Union St.", "zipcode": 94607, "lat": 37.8074136, "lng": -122.28962309999999, "test_1_demo_diff": -31.21831678773203, "test_2_demo_diff": -27.826088377723966, "eq_demo_diff": -29.522202582728}]}}